Station_Name,Station_Code,Lat,Long,Average_Delay
ABHAIPUR,AHA,25.2159864584,86.3230724591,82.6
ABOHAR,ABS,30.1393834225,74.1956861774,35.5
ABU ROAD,ABR,24.470775,72.775695,13.145833333333334
ACHHNERA JN,AH,27.1817602284,77.7578389026,80.0
ADESAR,AAR,23.5529783995,70.9720505023,14.6
ADHARTAL,ADTL,23.227389,79.972274,2.5
ADILABAD,ADB,19.680104,78.535285,125.5
ADIPUR,AI,23.0770527,70.0786586,99.71428571428571
ADONI,AD,15.617035,77.27485,47.6
ADRA JN,ADRA,23.495992,86.674665,117.22727272727273
ADRSH NGR DELHI,ANDI,28.714205,77.166707,55.5
ADUTURAI,ADT,11.009165,79.478668,24.25
AGARTALA,AGTL,23.792417,91.278481,162.0
AGRA CANTT,AGC,27.157992,77.990153,44.23364485981308
AGRA FORT,AF,27.183308,78.0191,105.74074074074075
AHMADNAGAR,ANG,19.0755194777,74.721882467,107.52777777777777
AHMADPUR JN,AMP,23.8325090573,87.6928410938,27.5
AHMEDABAD JN,ADI,23.025515,72.601516,35.60606060606061
AISHBAGH,ASH,26.8373880081,80.9096067993,39.714285714285715
AIT,AIT,25.903719,79.230436,225.0
AJJAMPUR,AJP,13.7283327,76.0097415,11.5
AJMER JN,AII,26.456612,74.637464,30.43859649122807
AJNI,AJNI,21.1268588122,79.0825197485,17.181818181818183
AKALKOT ROAD,AKOR,17.450243,76.137689,17.5
AKALTARA,AKT,22.029121,82.422049,65.3
AKBARPUR,ABP,26.429818,82.539073,170.6
AKIVIDU,AKVD,16.582654,81.369055,47.75
AKODIA,AKD,23.378255,76.599245,28.0
AKOLA JN,AK,20.723084,77.005497,87.46666666666667
ALAMNAGAR,AMG,26.84708,80.860312,71.0
ALER,ALER,17.6459553,79.0483414,62.166666666666664
ALIA BADA,ALB,22.44677,70.210367,23.5
ALIGARH JN,ALJN,27.889584,78.074559,138.81578947368422
ALIPUR DUAR JN,APDJ,26.523279,89.534048,303.5
ALLEPPEY,ALLP,9.483759,76.322476,45.214285714285715
ALUABARI ROAD,AUB,26.269681,88.18561,59.5
ALUVA,AWY,10.108163,76.356508,60.92156862745098
ALWAR,AWR,27.559273,76.621265,23.3
AMALNER,AN,21.049009,75.057314,23.93103448275862
AMALSAD,AML,20.811373,72.956092,11.5
AMBALA CANT JN,UMB,30.338918,76.826966,39.17045454545455
AMBALAPUZHA,AMPA,9.386059,76.363817,93.33333333333333
AMBANDAURA,AADR,31.670727,76.110391,3.5
AMBASA,ABSA,23.930507,91.860783,182.5
AMBATURAI,ABI,10.272226,77.924468,14.5
AMBIKAPUR,ABKP,23.137032,83.145109,34.5
AMBLI ROAD,ABD,23.05437,72.494044,11.0
AMBODALA,AMB,19.8363234649,83.4563524799,31.5
AMBUR,AB,12.782934,78.721266,16.833333333333332
AMDARA,UDR,24.0995008758,80.5779045111,42.5
AMETHI,AME,26.153024,81.806276,62.166666666666664
AMGAON,AGN,21.3612928554,80.3746491022,75.25
AMLA JN,AMLA,21.919717,78.123187,53.785714285714285
AMLAI,AAL,23.173469,81.593507,34.5
AMRAVATI,AMI,20.9300829,77.7577863,2.3333333333333335
AMRITSAR JN,ASR,31.631512,74.858025,46.266666666666666
AMROHA,AMRO,28.892688,78.474329,45.5
ANAKAPALLE,AKP,17.695503,83.008851,60.67857142857143
ANAND JN,ANND,22.561307,72.965733,39.73831775700935
ANAND NAGAR,ANDN,27.103714,83.270698,45.5
ANAND VIHAR TRM,ANVT,28.6505035654,77.31521255,116.38636363636364
ANANDPUR SAHIB,ANSB,31.2305136,76.5006035,31.5
ANANTAPUR,ATP,14.686478,77.595312,50.63333333333333
ANAPARTI,APT,16.935817,81.953181,44.0
ANARA,ANR,23.481082,86.559763,44.25
ANDAL JN,UDL,23.579012,87.181194,17.428571428571427
ANDHERI,ADH,19.1174289,72.846853,17.75
ANGAMALI,AFK,10.183676,76.37786,42.0
ANGUL,ANGL,20.859445,85.099994,73.23333333333333
ANJAR,AJE,23.1194723,70.0366109,13.142857142857142
ANKLESHWAR JN,AKV,21.623889,73.000633,15.903225806451612
ANKOLA,ANKL,14.645347,74.332936,59.0
ANNAVARAM,ANV,17.269633,82.419677,81.6923076923077
ANTAH,ATH,25.1611771,76.3072684,16.5
ANUGRAHA N ROAD,AUBR,24.8559556,84.3298444,161.03846153846155
ANUPPUR JN,APR,23.117312,81.695967,116.45
ARA,ARA,25.548889,84.662596,125.49122807017544
ARAKKONAM,AJJ,13.081512,79.667991,39.24285714285714
ARALVAYMOZHI,AAY,8.2494513612,77.5292646945,15.0
ARANTANGI,ATQ,10.1644690569637,78.9968481380492,20.0
ARARIYA COURT,ARQ,26.114921,87.446912,246.5
ARIYALUR,ALU,11.150035,79.068318,22.3125
ARSIKERE JN,ASK,13.314425,76.2520848,24.692307692307693
ARUMUGANERI,ANY,8.579144,78.091842,13.0
ARUPPUKKOTTAI,APK,9.524631681,78.10189147,17.25
ASALPUR JOBNER,JOB,26.900084,75.423467,13.0
ASANSOL JN,ASN,23.691441,86.975152,116.01149425287356
ASARVA JN,ASV,23.043981,72.612937,3.0
ASHOK NAGAR,ASKN,24.58015,77.726725,151.33333333333334
ATARRA,ATE,25.291367,80.576491,181.16666666666666
ATELI,AEL,28.100118,76.253105,14.5
ATRU,ATRU,24.8821354,76.6702185,15.5
ATTABIRA,ATS,21.388039,83.792637,94.0
ATTUR,ATU,11.594788,78.592092,9.0
ATUL,ATUL,20.544593354,72.9271335858,14.0
AUNG,AUNG,26.16423,80.544495,99.0
AUNRIHAR JN,ARJ,25.54466,83.187272,131.58333333333334
AURANGABAD,AWB,19.859276,75.310646,81.16666666666667
AVADI,AVD,13.118247,80.100518,22.0
AYODHYA DHAM JN,AY,26.787784,82.200604,135.14285714285714
AYODHYAPATTANAM,APN,11.671392,78.233642,2.0
AZAMGARH,AMH,26.038607,83.160614,12.0
BABATPUR,BTP,25.453616,82.8800248,285.0
BABHNAN,BV,26.938525,82.500127,86.6
BABINA,BAB,25.237832,78.451748,65.85714285714286
BACHHRAWAN,BCN,26.4773211,81.1054565,62.5
BADAMI,BDM,15.958918,75.6767002,66.5
BADARPUR JN,BPB,24.8651775,92.5563227,125.9
BADARWAS,BDWS,24.98333982,77.56182792,36.666666666666664
BADNERA JN,BD,20.8567925,77.7323197,83.69444444444444
BADSHAHNAGAR,BNZ,26.8686134,80.9613606,44.142857142857146
BADSHAHPUR,BSE,25.652268,82.190552,57.0
BAGAHA,BUG,27.130045,84.066991,17.25
BAGALKOT,BGK,16.1787931,75.7002383,63.0
BAGBAHRA,BGBR,21.0462946,82.3841486,37.0
BAGDIHI,BEH,21.951046,84.18631,37.0
BAGEVADI RD,BSRX,16.47986853,75.82814753,65.0
BAGNAN,BZN,22.462515,87.970711,84.75
BAHADURGARH,BGZ,28.700863,76.930886,26.545454545454547
BAHERI,BHI,28.777391,79.5003221,19.5
BAIKUNTHPUR RD,BRH,23.317286,82.5298836,58.5
BAIRAGNIA,BGU,26.738282,85.273334,175.0
BAKHTIYARPUR JN,BKP,25.45611,85.529564,132.07692307692307
BALAGHAT JN,BTC,21.8116285,80.1998853,75.25
BALAMU JN,BLM,27.167363,80.352497,37.0
BALANGIR,BLGR,20.688591,83.494207,100.25
BALASORE,BLS,21.500521,86.919582,120.36458333333333
BALHARSHAH,BPQ,19.8490173,79.3485858,41.94949494949495
BALLABGARH,BVH,28.3408609239,77.312775968,68.44444444444444
BALLIA,BUI,25.76057,84.15312,196.0
BALOTRA JN,BLT,25.830071,72.248683,52.5
BALRAMPUR,BLP,27.4158206073,82.1606698987,45.25
BALUGAN,BALU,19.747366,85.200953,100.57446808510639
BAMNIA,BMI,23.0957635,74.7590158,26.9
BAMRA,BMB,22.051355,84.291044,128.0
BANAPURA,BPF,22.4703575471,77.4807316095,54.5
BANASANDRA,BSN,13.265332,76.659317,17.5
BANASTHALI NIWAI,BNLW,26.3839278087,75.9351100635,30.9
BANASWADI,BAND,13.00573,77.628196,61.5
BANDA JN,BNDA,25.477677,80.336246,180.33333333333334
BANDAKPUR,BNU,23.848206,79.575956,45.5
BANDEL JN,BDC,22.9236565,88.3793623,14.0
BANDIKUI JN,BKI,27.039271,76.566723,37.72727272727273
BANDRA TERMINUS,BDTS,19.061911,72.840535,14.826086956521738
BANGALORE CANT,BNC,12.9936735,77.5993269,45.1
BANGALORE EAST,BNCE,13.00148,77.6184701,109.33333333333333
BANGARAPET,BWT,12.984808,78.178188,67.23529411764706
BANGRIPOSI,BGY,22.130678,86.501362,32.0
BANKHEDI,BKH,22.7748819,78.5379969,30.0
BANKURA,BQA,23.2243871,87.0746875,118.54545454545455
BANO,BANO,22.6647837973,84.9029854114,84.5
BANSPANI,BSPX,22.00024281,85.42341227,206.5
BAPATLA,BPP,15.9086144,80.4684248,109.25
BAPUDHAM MOTIHARI,BMKI,26.655733,84.90529,22.5
BARABANKI JN,BBK,26.935335,81.18104,55.05555555555556
BARABHUM,BBM,23.0912864,86.2112372,106.5
BARADWAR,BUA,22.011725,82.813724,145.5
BARAHAT,BHLE,24.9206004744,87.0100837976,41.0
BARAKAR,BRR,23.7416829,86.818859,53.8
BARAN,BAZ,25.0967701,76.5051284,107.75
BARAUNI JN,BJU,25.461768,85.988748,126.45454545454545
BARDDHAMAN JN,BWN,23.249718,87.870281,111.84848484848484
BARDOLI,BIY,21.1342405,73.1058944,100.0
BAREILLY,BE,28.3371543,79.4108444,60.94230769230769
BAREILLY,BRY,28.3372843,79.4109744,27.5
BAREILLY CITY,BC,28.3556564,79.403718,52.0
BAREJADI,BJD,22.8954267,72.6778863,8.0
BARETA,BRZ,29.8593339,75.6924026,41.5
BARGARH ROAD,BRGA,21.332903,83.642586,99.5
BARGAWAN,BRGW,24.197002,82.455989,65.0
BARH,BARH,25.46165,85.709426,128.83333333333334
BARHIYA,BRYA,25.2832026,86.0150768,83.25
BARIARPUR,BUP,25.2810286076,86.5740372229,87.5
BARIPADA,BPO,21.9227408,86.73709,44.5
BARKA KANA,BRKA,23.624159,85.469553,113.75
BARKUR,BKJ,13.4774588,74.7596804,37.25
BARMER,BME,25.7445219,71.397067,48.5
BARNAGAR,BNG,23.0304117,75.6111208,13.5
BARNALA,BNN,30.3703968,75.5492466,41.166666666666664
BARPALI,BRPL,21.1836377,83.5948758,202.0
BARPETA ROAD,BPRD,26.5028473,90.9639649,136.75
BARRACKPORE,BP,22.7610653,88.371428,8.0
BARSI TOWN,BTW,18.240993,75.718169,21.5
BARSOI JN,BOE,25.6512422,87.9229421,102.41666666666667
BARWA SAGAR,BWR,25.351848,78.731628,184.5
BASAR,BSX,18.86512,77.938506,73.0
BASMAT,BMF,19.3334723149,77.1517775964,35.5
BASNI,BANE,26.222963,73.010639,50.0
BASTA,BTS,21.7029241,87.0637831,34.5
BASTI,BST,26.815678,82.770059,79.20689655172414
BASWA,BU,27.149686,76.575644,18.0
BATALA JN,BAT,31.8214816,75.1944316,14.0
BAVLA,VLA,22.833389,72.365123,32.0
BAYANA JN,BXN,26.916354,77.297131,37.25
BAYTU,BUT,25.897538,71.76868,12.0
BAZPUR,BPZ,29.1578998,79.1463827,16.0
BEAS,BEAS,31.5193738,75.2908085,53.40625
BEAWAR,BER,26.1089078,74.3149711,7.136363636363637
BECHHIWARA,BHWA,23.787792,73.535256,2.5
BEDHAM,BEDM,27.453929,77.209461,15.0
BEGU SARAI,BGS,25.425296,86.134476,146.6
BEGUMPET,BMT,17.4388739,78.4586266,18.458333333333332
BELA TAL,BTX,25.2767862477,79.5544818896,231.5
BELAGAVI,BGM,15.8492433,74.5095639,29.444444444444443
BELAMPALLI,BPA,19.0536892,79.4863374,62.61538461538461
BELAPUR,BAP,19.6195693118,74.6617443079,129.04166666666666
BELDA,BLDA,22.07144398,87.33691374,53.142857142857146
BELLARY JN,BAY,15.145135,76.921995,12.833333333333334
BELPAHAR,BPH,21.8272123,83.8490763,92.16666666666667
BELTHARA ROAD,BLTR,26.121418,83.841719,0.0
BEOHARI,BEHR,24.0002687,81.3797154,83.25
BERCHHA,BCH,23.2824808,76.3341929,15.38888888888889
BETNOTI,BTQ,21.74134,86.8435187,45.0
BETTIAH,BTH,26.8058847,84.5229561,25.25
BETUL,BZU,21.896393,77.905897,67.93333333333334
BHABHAR,BAH,24.06528,71.615774,12.75
BHABUA ROAD,BBU,25.173007,83.618913,158.52941176470588
BHACHAU BG,BCOB,23.301391,70.344972,37.04545454545455
BHADOHI,BOY,25.3952636,82.5583597,101.07142857142857
BHADRACHALAM RD,BDCR,17.550365,80.616024,41.5
BHADRAKH,BHC,21.0917458,86.5162305,107.34210526315789
BHADRAVATI,BDVT,13.8424287,75.702832,14.0
BHAGA JN,VAA,23.723331,86.405555,169.5
BHAGALPUR,BGP,25.2419093,86.9767918,66.4
BHAGAT KI KOTHI,BGKT,26.2484972,73.0133366,9.916666666666666
BHAKTI NAGAR,BKNG,22.282963,70.792278,203.0
BHALKI,BHLK,18.0470111,77.228081,16.5
BHANDAK,BUX,20.084262,79.112528,49.75
BHANDARA ROAD,BRD,21.238512,79.647523,88.95833333333333
BHANVAD,BNVD,21.9330444,69.7988578,99.5
BHARAT KUP,BTKP,25.217166,80.767679,179.91666666666666
BHARATPUR JN,BTE,27.237107,77.488613,44.464285714285715
BHARTHANA,BNT,26.7502248,79.2163612,57.0
BHARUCH JN,BH,21.706907,72.997689,33.645833333333336
BHARWARI,BRE,25.5591917,81.4918665,129.0
BHATAPARA,BYT,21.732464,81.946062,69.73684210526316
BHATINDA JN,BTI,30.209488,74.932083,24.384615384615383
BHATIYA,BHTA,22.0881542,69.2803623,15.5
BHATKAL,BTJL,13.98866,74.5655589,44.6875
BHATNI JN,BTT,26.381257,83.934035,113.5
BHATTU,BHT,29.387323,75.34013,51.5
BHAVANAGAR PARA,BVP,21.77089,72.118682,11.25
BHAVNAGAR TRMUS,BVC,21.781668,72.141059,18.25
BHAWANI MANDI,BWM,24.419472,75.82981,31.275
BHAWANIPATNA,BWIP,19.93393,83.158398,16.0
BHAYANDAR,BYR,19.311766,72.853039,11.0
BHESTAN,BHET,21.1278829,72.8613128,28.0
BHILAD,BLD,20.2753232,72.887446,18.0
BHILAI PWR HS,BPHB,21.208119,81.375901,31.272727272727273
BHILDI,BLDI,24.194251,72.008187,9.125
BHILWARA,BHL,25.3435508,74.6307734,26.666666666666668
BHIMAVARAM TOWN,BVRT,16.547348,81.516853,17.5
BHIND,BIX,26.5889049,78.7774353,29.333333333333332
BHIWANDI ROAD,BIRD,19.268544,73.045654,40.6
BHIWANI,BNW,28.7984261,76.1255797,53.0
BHOJUDIH JN,BJE,23.642175,86.4469993,88.25
BHONGIR,BG,17.524696,78.89847,54.875
BHOPAL JN,BPL,23.2668843843,77.4131428577,40.26
BHUBANESWAR,BBS,20.265388,85.842595,109.52941176470588
BHUJ,BHUJ,23.2660225,69.6778278,60.2
BHULANPUR,BHLP,25.2878753,82.9575192,2.0
BHUSANDPUR,BSDP,19.9517927,85.4764825,22.0
BHUSAVAL JN,BSL,21.0472812,75.7886717,88.68586387434554
BHUTESHWAR,BTSR,27.50137,77.66784,19.5
BIBINAGAR,BN,17.470511,78.794355,22.0
BIDADI,BID,12.8004252,77.3902984,13.0
BIDAR,BIDR,17.9116836,77.5137793,47.666666666666664
BIHAR SHARIF,BEHS,25.206116,85.5390747,104.0
BIHIYA,BEA,25.558893,84.448984,131.5
BIHTA,BTA,25.5609486,84.8740874,133.33333333333334
BIJAINAGAR,BJNR,25.931003,74.6530589,28.642857142857142
BIJURI,BJRI,23.2503386,82.1189461,68.5
BIJWASAN,BWSN,28.5367,77.051292,7.0
BIKANER JN,BKN,28.014139,73.316598,34.16216216216216
BILASPUR JN,BSP,22.057473,82.167585,131.81159420289856
BILHAUR,BLU,26.839002,80.060383,186.0
BILIMORA JN,BIM,20.763319,72.970474,14.764705882352942
BINA JN,BINA,24.1709735,78.1831998,54.265822784810126
BINA MALKHEDI JN,MAKR,24.169924,78.223009,93.7
BINDKI ROAD,BKO,26.116562,80.580557,100.5
BIRSINGHPUR,BRS,23.3672117,81.0433529,33.0
BIRUR JN,RRB,13.591101,75.974749,25.357142857142858
BISHNUPUR,VSU,23.065499,87.301071,75.42857142857143
BISSAMCUTTACK,BMCK,19.487438,83.458973,21.5
BITRAGUNTA,BTTR,14.7685848,79.983146,56.0
BIYAVRA RAJGARH,BRRG,23.93591,76.907007,45.3
BOBBILI,VBL,18.576764,83.345722,54.3
BOINDA,BONA,20.9200366,84.7482064,64.75
BOISAR,BOR,19.7985273,72.761899,30.571428571428573
BOKARO STL CITY,BKSC,23.656551,86.085016,157.3
BOLPUR S NIKTN,BHP,23.657804,87.698136,85.375
BOMMIDI,BQI,11.984698435,78.2462805359,19.833333333333332
BONDAMUNDA,BNDM,22.2355174,84.9250581,274.0
BORDI ROAD,BRRD,20.122424,72.766138,14.0
BORIVALI,BVI,19.228739,72.856412,26.23076923076923
BOTAD JN,BTD,22.1828706,71.6655966,30.41176470588235
BRAHMAPUR,BAM,19.2961348,84.7966912,118.90697674418605
BRAJRAJNAGAR,BRJN,21.822718,83.923653,131.92857142857142
BRIJ NAGAR,BINR,27.439639,77.089708,43.5
BUDALUR,BAL,10.782843,78.981443,19.666666666666668
BUDAUN,BEM,28.0274922,79.1360237,33.5
BUDHLADA,BLZ,29.9217422,75.5496866,33.75
BULANDSHAHR,BSC,28.3919187,77.8482415,53.5
BUNDI,BUDI,25.407922,75.650699,103.66666666666667
BURAMARA,BWO,22.107567,86.650295,37.5
BURHANPUR,BAU,21.3343976,76.1986787,75.31428571428572
BURHAR,BUH,23.213204,81.528406,68.25
BURNPUR,BURN,23.6719137,86.9386234,26.0
BUXAR,BXR,25.562067,83.982184,129.3859649122807
BYADGI,BYD,14.6997230018,75.4900954675,15.5
C SHAHUMHARAJ T,KOP,16.70257,74.237695,1.0
CASTLE ROCK,CLR,15.397879,74.334484,81.0
CHACHAURA BNGJ,CBK,24.178144,77.016603,39.333333333333336
CHAIBASA,CBSA,22.560494,85.812342,184.5
CHAKIA,CAA,26.417182,85.04636,22.5
CHAKRADHARPUR,CKP,22.678979,85.627771,238.3095238095238
CHAKULIA,CKU,22.478149,86.721161,144.75
CHALAKUDI,CKI,10.3017975,76.3218076,44.3
CHALISGAON JN,CSN,20.464109,74.999049,75.11764705882354
CHAMPA,CPH,22.034731,82.665149,166.76470588235293
CHANDA FORT,CAF,19.9400612,79.3122585,20.0
CHANDAULI MJHWR,CDMR,25.261093,83.267724,466.0
CHANDERIYA,CNA,24.939558,74.629979,84.375
CHANDI MANDIR,CNDM,30.727071,76.886839,165.5
CHANDIGARH,CDG,30.7019773,76.82208,41.25
CHANDIL JN,CNI,22.956014,86.072109,99.5
CHANDLODIYA,CLDY,23.074516,72.543606,8.75
CHANDRAKONA RD,CDGR,22.739076,87.340588,32.25
CHANDRAPUR,CD,19.960126,79.300505,67.51470588235294
CHANDRAPURA,CRP,23.755676,86.119775,180.0
CHANDUR,CND,20.8045192,77.9821558,43.0
CHANGANASERI,CGY,9.449881,76.548414,27.25
CHANNAPATNA,CPT,12.659673,77.203824,13.0
CHANPATIA,CAI,26.94163,84.530639,0.0
CHAPARMUKH JN,CPK,26.202272,92.511718,223.0
CHARLAPALLI,CHZ,17.457672,78.605619,53.333333333333336
CHARVATTUR,CHV,12.213321,75.15435,11.0
CHATRAPUR,CAP,19.3589572,84.973273,90.36363636363636
CHAU MAHLA,CMU,23.948205,75.600861,17.25
CHAUSA,CSA,25.4984911003,83.8963314038,197.0
CHAUTH KA BRWRA,CKB,26.051333,76.149053,17.875
CHENGALPATTU,CGL,12.692864,79.981519,24.75
CHENGANNUR,CNGR,9.319504,76.608271,60.166666666666664
CHENNAI CENTRAL,MAS,13.0847613,80.2748563,33.189473684210526
CHENNAI EGMORE,MS,13.077678,80.260193,29.836734693877553
CHHABRA GUGOR,CAG,24.680339,76.850989,14.5
CHHAPRA,CPR,25.78832,84.725004,103.18181818181819
CHHATNA,CJN,23.305386,86.975734,21.166666666666668
CHHAYAPURI,CYI,22.388284,73.179698,78.73913043478261
CHIDAMBARAM,CDM,11.391471,79.7033411,43.666666666666664
CHIK BANAVAR,BAW,13.073539,77.506341,31.5
CHIKJAJUR JN,JRU,14.126112,76.138705,34.75
CHILKA,CLKA,19.686694,85.179914,24.0
CHINCHVAD,CCH,18.638903,73.791392,24.25
CHINNA SALEM,CHSM,11.631062,78.873821,9.0
CHIPLUN,CHI,17.5425074,73.522429,73.04166666666667
CHIPURUPALLE,CPP,18.316259,83.569608,108.83333333333333
CHIRALA,CLX,15.830755,80.353602,85.07317073170732
CHIRAWA,CRWA,28.2233413650416,75.6506845168769,15.5
CHITAL,CTL,21.745689,71.218128,39.0
CHITRADURG,CTA,14.231154,76.386431,45.75
CHITRAKOOTDHAM,CKTD,25.217611,80.922775,172.14285714285714
CHITTAPUR,CT,17.1197808,77.0904516,27.375
CHITTARANJAN,CRJ,23.857138,86.878036,138.3
CHITTAURGARH,COR,24.874341,74.623687,13.9375
CHITTOOR,CTO,13.219857,79.103252,59.80952380952381
CHITYALA,CTYL,17.221960824,79.135713114,46.5
CHOPAN,CPU,24.51403,83.025843,76.5
CHORVAD ROAD,CVR,21.055196,70.290734,18.5
CHOTI KHATU,CTKT,27.155534,74.35723,46.125
CHUNAR,CAR,25.103351,82.874703,164.4
CHURU,CUR,28.288281,74.966203,42.63636363636363
COIMBATORE JN,CBE,10.997639,76.966298,49.91428571428571
COIMBATORE NRTH,CBF,11.019937,76.954304,19.285714285714285
CUDDALORE PORT,CUPJ,11.715119,79.766287,86.0
CUDDAPAH,HX,14.45169,78.829184,26.09090909090909
CUTTACK,CTC,20.466588,85.90156,123.56435643564356
DABHAURA,DBR,25.11793,81.303125,72.5
DABLA,DBLA,27.88868543,75.9464005609,15.0
DABRA,DBA,25.881197,78.331015,87.375
DADAR,DDR,19.019731,72.843465,12.285714285714286
DADAR,DR,19.017179,72.842972,66.81632653061224
DAHANU ROAD,DRD,19.991217,72.743368,19.047619047619047
DAHOD,DHD,22.843607,74.253374,34.05769230769231
DAKANIYA TALAV,DKNT,25.145188,75.865501,15.75
DALKOLHA,DLK,25.873416,87.838877,17.5
DALSINGH SARAI,DSS,25.6647486,85.8414652,33.0
DALTONGANJ,DTO,24.033075,84.074843,112.5
DAMNAGAR,DME,21.688346,71.509053,17.0
DAMOH,DMO,23.836693,79.432246,109.07142857142857
DANAPUR,DNR,25.581921,85.044629,145.46808510638297
DANGOAPOSI,DPS,22.167964,85.59273,201.5
DANIYAWAN BZR H,DNWH,25.4345036206,85.2908951074,124.0
DANKUNI,DKAE,22.677422,88.291491,121.33333333333333
DANTAN,DNT,21.930376,87.284055,38.5
DARA,DARA,24.832609,76.005784,24.5
DARBHANGA JN,DBG,26.157088,85.907575,165.375
DARYABAD,DYD,26.861303,81.550114,83.0
DASUYA,DZA,31.80853,75.657932,54.0
DATIA,DAA,25.64107,78.456356,92.36363636363636
DAUND CHORD LINE,DDCC,18.4671,74.5535,96.06666666666666
DAUND JN,DD,18.463547,74.578622,39.0
DAUSA,DO,26.900047,76.330336,28.045454545454547
DAVANGERE,DVG,14.467834,75.92229,20.45
DEEG,DEEG,27.48655053,77.32451142,43.5
DEGANA JN,DNA,26.897349,74.316388,40.869565217391305
DEHRADUN,DDN,30.3140377,78.0336011,32.6
DEHRI ON SONE,DOS,24.914895,84.185434,153.1578947368421
DELANG,DEG,20.038474,85.76695,54.5
DELHI,DLI,28.661816,77.228356,51.6551724137931
DELHI CANTT,DEC,28.613534,77.116577,21.857142857142858
DELHI KISHANGNJ,DKZ,28.664732,77.201256,36.0
DELHI S ROHILLA,DEE,28.662992,77.187106,8.625
DELHI SAFDARJNG,DSJ,28.582121,77.186969,0.0
DEOBAND,DBD,29.6800315,77.6708734,11.0
DEORIA SADAR,DEOS,26.5076811676,83.7819590961,91.95
DESHNOK,DSO,27.791303,73.338483,35.5
DEVAKOTTAI ROAD,DKO,10.037611,78.761747,7.666666666666667
DEVLALI,DVL,19.897509,73.83729,14.25
DEWAS,DWX,22.977556,76.051191,20.375
DHAMANGAON,DMN,20.784674,78.138054,43.833333333333336
DHAMPUR,DPR,29.305446,78.501588,43.0
DHANBAD JN,DHN,23.790966,86.428956,142.17777777777778
DHANDARI KALAN,DDL,30.874477,75.909491,26.0
DHANDHUKA,DCK,22.384024,71.975613,23.5
DHANERA,DQN,24.506528,72.032364,22.714285714285715
DHANMANDAL,DNM,20.687806,86.11228,33.0
DHARANGAON,DXG,21.006447,75.286092,36.111111111111114
DHARHARA,DRH,25.2578934114,86.4115380682,117.5
DHARIWAL,DHW,31.949113,75.321565,16.5
DHARMABAD,DAB,18.8882603101,77.8493415012,34.0
DHARMANAGAR,DMR,24.366946,92.168247,187.5
DHARMAPURI,DPJ,12.126595,78.154742,33.5
DHARMAVARAM JN,DMM,14.424369,77.717115,48.09375
DHARWAR,DWR,15.440386,75.004552,20.22222222222222
DHASA JN,DAS,21.782545,71.518008,17.666666666666668
DHAULPUR,DHO,26.697592,77.906049,77.0
DHENKANAL,DNKL,20.676825,85.590878,82.46666666666667
DHOLA JN,DLJ,21.822549,71.738273,29.941176470588236
DHOLKA,DOK,22.731982,72.433842,11.5
DHONE,DHNE,15.396729,77.865727,35.73076923076923
DHRANGADHRA,DHG,22.9871651,71.4791076,84.53333333333333
DHUPGURI,DQG,26.573532,88.994973,87.0
DHURI JN,DUI,30.372741,75.866603,19.571428571428573
DIBRUGARH,DBRG,27.4636065659,94.9352579102,92.25
DIDWANA,DIA,27.406108,74.557656,49.875
DIGHA FLAG STN,DGHA,21.622377,87.507655,75.16666666666667
DIGHWARA,DGA,25.743938,85.003168,24.5
DILDARNAGAR JN,DLN,25.419424,83.668324,123.18181818181819
DIMAPUR,DMV,25.905702,93.727816,108.0
DINA NAGAR,DNN,32.134789,75.467351,18.5
DINDIGUL JN,DG,10.35381,77.985472,15.361702127659575
DIPHU,DPU,25.83725,93.438384,110.75
DISA,DISA,24.2371252,72.1796003,9.2
DIYODAR,DEOR,24.113489,71.770888,9.6
DOBHI H,DHE,25.604879,82.998947,102.5
DODBALLAPUR,DBU,13.27894,77.55016,41.5
DONDAICHA,DDE,21.331414,74.563104,30.307692307692307
DONGARGARH,DGG,21.185492,80.759857,76.65
DORNAKAL JN,DKJ,17.445987,80.153157,76.08333333333333
DUDHANI,DUD,17.362421,76.37871,21.5
DULLAHAPUR,DLR,25.799898,83.423264,14.0
DUMRAON,DURE,25.571984,84.143865,124.3
DUNDARA,DOR,25.895799,72.796892,29.75
DUNDI,DDCE,23.557854,80.216657,32.0
DUNGARPUR,DNRP,23.867175,73.695462,7.25
DUNGRIPALI,DJX,21.060873,83.559213,197.75
DURG,DURG,21.200327,81.291837,79.53658536585365
DURGACHAK TOWN,DZKT,22.066831,88.136032,11.5
DURGAPUR,DGR,23.495046,87.297902,112.87755102040816
DURGAPURA,DPA,26.855947,75.786436,40.02272727272727
DUVVADA,DVD,17.703843,83.152059,53.45454545454545
DWARAPUDI,DWP,16.927556,81.922661,52.5
DWARKA,DWK,22.251023,68.980434,49.2
EKANGARSARAI,EKR,25.2224815,85.2322638,121.0
EKMA,EKMA,25.967099,84.53637,20.0
ELLAMANCHILI,YLM,17.553652,82.85262,50.25
ELURU,EE,16.717816,81.119762,101.38356164383562
ERANIEL,ERL,8.212549,77.308161,31.0
ERNAKULAM JN,ERS,9.969542,76.290672,55.12244897959184
ERNAKULAM TOWN,ERN,9.991582,76.2861,59.16
ERODE JN,ED,11.327682,77.725934,48.26744186046512
ETAWAH,ETW,26.78597,79.021502,102.21052631578948
ETTAPUR ROAD,ETP,11.651009,78.468545,9.0
FALAKATA,FLK,26.5383964616,89.1922748828,17.0
FALNA,FA,25.235808,73.234953,14.619047619047619
FARIDABAD,FDB,28.411473,77.307348,31.166666666666668
FARIDKOT,FDK,30.682857,74.76138,41.0
FARRUKHABAD,FBD,27.38236,79.571737,83.625
FATEHGARH,FGR,27.369608,79.62159,179.5
FATEHNAGAR,FAN,24.81828,74.095782,12.0
FATEHPUR,FTP,25.917489,80.801869,127.1470588235294
FATEHPUR SKHWTI,FPS,28.000728,74.971043,39.0
FATUHA JN,FUT,25.50144,85.305488,127.0
FEROK,FK,11.1749722,75.8302845,16.333333333333332
FIROZABAD,FZD,27.147415,78.386691,94.33333333333333
FIROZPUR CANT,FZR,30.942486,74.618439,21.5
FORBESGANJ,FBG,26.298901,87.262803,248.5
FURKATING JN,FKG,26.465652,94.002692,88.5
GACHHIPURA,GCH,26.953522,74.454426,12.5
GADAG JN,GDG,15.437048,75.642481,44.0
GADARWARA,GAR,22.899459,78.791734,53.0
GADWAL,GWD,16.22509,77.809672,57.6
GAHMAR,GMR,25.488685,83.804431,140.75
GAJAPATINAGARAM,GPI,18.293291,83.333902,86.0
GAJSINGHPUR,GJS,29.658053,73.436739,17.75
GALUDIH,GUD,22.648872,86.410494,248.5
GANAGAPUR ROAD,GUR,17.340443,76.5903,21.166666666666668
GANAUR,GNU,29.130776,77.01075,126.66666666666667
GANDHIDHAM BG,GIMB,23.069086,70.147754,42.34615384615385
GANDHIGRAM,GG,23.02676,72.568831,1.0
GANDHINAGAR CAP,GNC,23.233379,72.629162,27.4
GANDHINAGAR JPR,GADJ,26.873067,75.79828,25.85
GANESHGANJ,GAJ,23.895862,79.074633,20.0
GANGADHARPUR,GNGD,19.815673,85.293235,23.0
GANGAPUR CITY,GGC,26.468979,76.727708,45.733333333333334
GANGSAR JAITU,GJUT,30.445082,74.879511,37.5
GANJ BASODA,BAQ,23.845347,77.944826,47.22222222222222
GANJAM,GAM,19.395827,85.046719,24.5
GARH JAIPUR,GUG,23.416142,86.142459,55.0
GARHBETA,GBA,22.844562,87.320972,32.875
GARHI HARSARU,GHH,28.43755,76.929697,33.25
GARHWA,GHQ,24.1751953,83.8132154,112.5
GARLA,GLA,17.487076,80.139236,32.5
GAROT,GOH,24.2790919912,75.6843219769,23.5
GARPOS,GPH,22.134204,84.418434,207.0
GARWA ROAD,GHD,24.214419,83.885116,103.5
GAURIBIDANUR,GBD,13.613081,77.512781,40.5
GAURIGANJ,GNG,26.20341,81.686726,97.0
GAYA JN,GAYA,24.803978,84.999294,158.328125
GETOR JAGATPURA,GTJT,26.836925,75.832384,34.0
GHANPUR,GNP,17.8506252,79.3768995,71.0
GHATPRABHA,GPB,16.240718896,74.7598229541,68.5
GHATSILA,GTS,22.58616,86.479768,150.08333333333334
GHAZIABAD,GZB,28.649702,77.431099,73.98333333333333
GHAZIPUR CITY,GCT,25.583144,83.568045,139.1875
GHOLVAD,GVD,20.08688,72.737991,14.0
GHORADONGRI,GDYA,22.126423,78.001987,82.0
GIDDALUR,GID,15.379008,78.925583,244.5
GIDDARBAHA,GDB,30.201319,74.663342,37.333333333333336
GIRIMAIDAN,GMDN,22.340478,87.306151,60.5
GOALPARA TOWN,GLPT,26.126535,90.620659,111.375
GODHRA JN,GDA,22.776974,73.603672,29.304347826086957
GOHAD ROAD,GOA,26.480421,78.439153,15.5
GOILKERA,GOL,22.50529,85.379352,225.5
GOKARNA ROAD,GOK,14.582791,74.367197,50.25
GONDA JN,GD,27.154613,81.978152,84.35135135135135
GONDAL,GDL,21.972471,70.795588,202.25
GONDIA JN,G,21.462435,80.190842,99.22619047619048
GONEANA BHAI JAGTA,GNA,30.318715,74.90948,36.5
GOOTY JN,GY,15.149208,77.625823,46.464285714285715
GORAKHPUR JN,GKP,26.759311,83.381499,79.86363636363636
GOSALPUR,GSPR,23.381806,80.059225,25.0
GOTAN,GOTN,26.652201,73.737284,21.375
GOVERDHAN,GDO,27.520546,77.461643,43.0
GOVINDGARH,GVH,27.499556,76.988058,41.5
GOVINDPURI,GOY,26.454423,80.313203,121.47058823529412
GUDIVADA JN,GDV,16.429888,80.987594,50.5
GUDIYATTAM,GYM,12.937471,78.916157,13.5
GUDLAVALLERU,GVL,16.348371,81.046037,31.5
GUDUR JN,GDR,14.148227,79.845121,78.49
GULABPURA,GBP,25.9027951891,74.6559544983,7.0
GUNA,GUNA,24.6405,77.314104,79.73333333333333
GUNTAKAL JN,GTL,15.17556,77.366611,42.361111111111114
GUNTUR JN,GNT,16.300784,80.441973,55.92307692307692
GURARU,GRRU,24.811113,84.791831,158.0
GURDASPUR,GSP,32.044111,75.420769,16.5
GURGAON,GGN,28.489165,77.010739,23.72222222222222
GURSAHAIGANJ,GHJ,27.118804,79.732035,37.5
GUSKARA,GKH,23.489998,87.733397,23.0
GUWAHATI,GHY,26.182635,91.751851,102.25
GWALIOR,GWL,26.216483,78.182292,48.17142857142857
GYANPUR ROAD,GYN,25.280144011,82.4272883557,78.68
H NIZAMUDDIN,NZM,28.58733,77.254249,23.678260869565218
H SAHIB NANDED,NED,19.160522,77.310478,34.333333333333336
HADAPSAR,HDP,18.526887,73.927844,513.5
HAJIPUR JN,HJP,25.702909,85.2155,135.5
HALDIA,HLZ,22.045284,88.06589,63.0
HALDIBARI,HDB,26.334952,88.781936,10.0
HALDIPADA,HIP,21.571439,86.996648,42.5
HALVAD,HVD,23.0185158,71.1829095,26.8
HANSDIHA,HSDA,24.6141943022,87.0849798193,46.5
HANUMANGARH JN,HMH,29.614904,74.297633,23.5
HAPA,HAPA,22.468974,70.11814,54.19230769230769
HAPUR,HPU,28.739613,77.779576,44.0
HARCHANDPUR,HCP,26.34316,81.160841,63.5
HARDA,HD,22.338414,77.10084,90.76
HARDOI,HRI,27.399414,80.147877,58.8
HARICHANDANPUR,HCNR,21.328476,85.795395,220.0
HARIDWAR JN,HW,29.947787,78.154899,23.916666666666668
HARIHAR,HRR,14.515431,75.812314,21.4
HARINAGAR,HIR,27.156647,84.324507,17.5
HARIPPAD,HAD,9.279602,76.462229,92.33333333333333
HARISCHANDRPUR,HCR,25.403999,87.867051,35.25
HARISHANKER RD,HSK,20.6267890734,82.7660362524,38.0
HARNAUT,HRT,25.3717628362,85.5407224109,108.0
HARPALPUR,HPP,25.290501,79.335461,190.33333333333334
HASIMARA,HSA,26.72689,89.347661,307.0
HASSAN,HAS,13.003182,76.117359,25.333333333333332
HATHIDAH JN,HTZ,25.367027,85.987826,85.25
HATHRAS CITY,HTC,27.5998169,78.0550687,81.375
HATHRAS JN,HRS,27.62483,78.137067,123.66666666666667
HATIA,HTE,23.311613,85.308218,88.92857142857143
HATKANAGALE,HTK,16.748424,74.422067,19.0
HAVERI,HVR,14.7943,75.410686,20.0625
HAZARIBAGH RD,HZD,24.174583,85.892035,138.91666666666666
HIJILLI,HIJ,22.319921,87.320169,109.875
HILSA,HIL,25.317354,85.277079,128.5
HIMAYATNAGAR,HEM,19.416709,77.868855,154.0
HIMMATNAGAR,HMT,23.591655,72.960358,2.75
HINDAUN CITY,HAN,26.756164,77.031686,33.8125
HINDOL ROAD,HND,20.768563,85.424456,42.0
HINDUPUR,HUP,13.819144,77.500362,70.95454545454545
HINGANGHAT,HGT,20.542631,78.833925,47.57142857142857
HINGOLI DECCAN,HNL,19.726357,77.146758,38.714285714285715
HIRA NAGAR,HRNR,32.487007,75.268733,39.5
HIRAKUD,HKG,21.479827,83.905097,208.75
HISAR,HSR,29.152341,75.724305,22.8
HOJAI,HJI,26.001794,92.851752,138.8
HOLE NARSIPUR,HLN,12.786495,76.24646,38.5
HONNAVAR,HNA,14.316931,74.433196,51.5
HOSDURGA ROAD,HSD,13.8632737545,76.1332331232,13.5
HOSPET JN,HPT,15.286807,76.38578,44.0
HOSUR,HSRA,12.717606,77.822839,47.0
HOWRAH JN,HWH,22.584078,88.340999,140.0
HUBBALLI JN,UBL,15.350302,75.148104,12.88888888888889
HYDERABAD DECAN,HYB,17.393363,78.467377,12.25
ICHCHPURAM,IPM,19.110752,84.680427,100.5
IDAPLLI,IPL,10.034338,76.298271,36.0
IDGAH AGRA JN,IDH,27.17265,77.997807,47.0
IGATPURI,IGP,19.694053,73.562379,57.142857142857146
INDARGARH,IDG,25.727874,76.232938,13.428571428571429
INDORE JN BG,INDB,22.71757,75.868429,46.51851851851852
IRINJALAKUDA,IJK,10.339456,76.280924,44.8
ISARDA,ISA,26.170515,76.030637,21.166666666666668
ISLAMPUR,IPR,25.1385771015,85.2173007153,103.5
ITARSI JN,ET,22.608258,77.767128,60.545918367346935
IZZATNAGAR,IZN,28.388266,79.421171,52.0
JABALPUR,JBP,23.164636,79.950919,90.2
JADCHERLA,JCL,16.752658,78.141972,26.714285714285715
JAGADHRI WSHOP,JUDW,30.135558,77.240819,30.5
JAGI ROAD,JID,26.126114,92.197461,125.25
JAGRAON,JGN,30.801197,75.472759,16.0
JAI SAMAND ROAD,JYM,24.22064,73.86827,5.0
JAIPUR,JP,26.920203,75.786923,36.02
JAIS,JAIS,26.262162,81.51914,30.4
JAISALMER,JSM,26.91655,70.928239,4.4
JAITSAR,JES,29.342839,73.652289,12.75
JAITWAR,JTW,24.740226,80.863876,137.5
JAJPUR K ROAD,JJKR,20.943544,86.132518,115.1304347826087
JAKHAL JN,JHL,29.8018131127,75.8245009833,18.65
JAKHAPURA,JKPR,20.917821,86.06534,227.5
JALAMB JN,JM,20.813007,76.573236,86.66666666666667
JALANDHAR CANT,JRC,31.306235,75.632106,27.568181818181817
JALANDHAR CITY,JUC,31.331665,75.591499,48.40625
JALESWAR,JER,21.79749,87.220491,108.3
JALGAON JN,JL,21.018115,75.562875,69.83333333333333
JALNA,J,19.830781,75.893142,82.83333333333333
JALOR,JOR,25.35418,72.63429,21.555555555555557
JALPAIGURI,JPG,26.51816,88.723026,18.5
JALPAIGURI ROAD,JPE,26.559017,88.709453,86.4
JAM JODHPUR JN,JDH,21.906659,70.031387,384.0
JAM WANTHALI,WTJ,22.429409,70.321802,19.0
JAMALPUR JN,JMP,25.313906,86.492285,79.0
JAMIKUNTA,JMKT,18.290021,79.476918,69.22222222222223
JAMMU TAWI,JAT,32.706975,74.880117,37.04761904761905
JAMNAGAR,JAM,22.493992,70.053879,57.54545454545455
JAMTARA,JMT,23.958904,86.805183,150.875
JAMUI,JMU,24.971949,86.254775,156.875
JANAKPUR ROAD,JNR,26.467914,85.700856,171.0
JANGAON,ZN,17.725115,79.154734,70.0
JANGHAI JN,JNH,25.549911,82.310962,135.78571428571428
JAORA,JAO,23.627773,75.115632,56.0
JASIDIH JN,JSME,24.514517,86.644255,128.44117647058823
JAUNPUR CITY,JOP,25.734125,82.666999,94.07142857142857
JAUNPUR JN,JNU,25.762849,82.699696,125.86666666666666
JAWAI BANDH,JWB,25.114043,73.147325,17.625
JAYASINGPUR,JSP,16.791339,74.551613,19.0
JAYNAGAR,JYG,26.589465,86.134871,269.0
JEJURI,JJR,18.286557,74.171451,64.75
JETALSAR JN,JLR,21.729374,70.57391,149.5
JEUR,JEUR,18.260933,75.162471,19.75
JHAJHA,JAJ,24.779456,86.399854,108.96428571428571
JHALIDA,JAA,23.370005,85.975282,95.5
JHANTIPAHARI,JPH,23.353363,86.904491,74.0
JHARGRAM,JGM,22.4549644863,86.9985316705,151.7
JHARSUGUDA JN,JSG,21.862274,84.017427,180.7962962962963
JHARSUGUDA ROAD,JSGR,21.850125,84.010526,75.25
JHINJHAK,JJK,26.554994,79.734225,56.0
JHUNJHUNUN,JJN,28.1068840638572,75.3901786543429,16.0
JHUSI,JI,25.431145,81.916644,0.0
JIND JN,JIND,29.328876,76.289617,26.764705882352942
JN,FTD,23.009106,75.673338,20.0
JODHPUR JN,JU,26.283765,73.02319,32.15909090909091
JOGAL,JOL,21.696442,86.882714,44.0
JOGBANI,JBN,26.402263,87.263262,231.5
JOLARPETTAI,JTJ,12.560852,78.57782,50.07964601769911
JORAWARNAGAR JN,JVN,22.71246,71.641594,25.5
JOYCHANDI PAHAR,JOC,23.516393,86.680339,168.5
JUGPURA,JRG,21.668795,86.912796,44.5
JUKEHI,JKE,23.986873,80.432389,35.5
JUNAGADH JN,JND,21.530606,70.457612,30.5
JUNAGARH ROAD,JNRD,19.874057,82.946083,0.0
KACHEGUDA,KCG,17.389561,78.499756,32.370370370370374
KADAMBUR,KDU,9.002019,77.863633,18.5
KADAYNALLUR,KDNL,9.085394,77.3631977,17.5
KADIRI,KRY,14.114788,78.165591,47.0
KADUR,DRU,13.552501,76.008846,20.666666666666668
KAIKOLUR,KKLR,16.551026,81.218316,46.25
KAJRA,KJH,25.182766,86.261571,92.75
KAKINADA PORT,COA,16.955204,82.240057,15.0
KAKINADA TOWN,CCT,16.9670099,82.2329218,36.833333333333336
KALANAUR KALAN,KLNK,28.8349236,76.389612,55.0
KALAPIPAL,KPP,23.332775,76.834002,27.5
KALKA,KLK,30.837667,76.931759,89.0
KALLAKKUDI PLGH,KKPM,10.966119,78.948759,20.0
KALLKIRI,KCI,13.643625,78.801131,55.25
KALOL,KLL,23.244576,72.50363,20.0
KALPI,KPI,26.119339,79.755607,145.66666666666666
KALUPARA GHAT,KAPG,19.896585,85.403651,45.2
KALYAN JN,KYN,19.234716,73.12974,76.11278195488721
KAMAKHYA,KYQ,26.156154,91.689505,129.58823529411765
KAMALAPURAM,KKM,14.591762,78.666113,30.5
KAMAREDDI,KMC,18.32586,78.335858,57.833333333333336
KAMARKUNDU,KQU,22.821631,88.205127,27.0
KAMPTEE,KP,21.21172,79.197947,63.75
KAMTAUL,KML,26.337348,85.808624,172.5
KANAKPURA,KKU,26.92883,75.702559,9.0
KANALAS JN,KNLS,22.319955,69.896549,23.0
KANAS ROAD,KASR,20.06205,85.7428,36.0
KANCHIPURAM,CJ,12.848947,79.703149,52.0
KANHANGAD,KZE,12.320268,75.085248,38.46153846153846
KANKAVALI,KKW,16.2587773,73.7198709,116.08333333333333
KANNAUJ,KJN,27.026507,79.926109,101.83333333333333
KANNUR,CAN,11.8706942,75.3683267,46.45238095238095
KANPUR ANWRGANJ,CPA,26.456233,80.328444,99.16666666666667
KANPUR CENTRAL,CNB,26.45424,80.350966,106.14465408805032
KANTABANJI,KBJ,20.474059,82.906517,70.35
KANTHI P H,KATI,21.788743,87.734128,90.16666666666667
KANWAT,KAWT,27.5895214437,75.6762663684,15.0
KANYAKUMARI,CAPE,8.088028,77.542504,53.625
KAPASAN,KIN,24.86221,74.312762,11.5
KAPREN,KPZ,25.444815,76.086492,23.0
KAPTANGANJ JN,CPJ,26.926388,83.699907,30.0
KARAD,KRD,17.310011,74.215686,43.1
KARAIKKUDI JN,KKDI,10.068518,78.793315,54.9
KARAMBELI,KEB,20.316435,72.901534,12.0
KARAMELARAM,CRLM,12.907633,77.706014,54.5
KARELI,KY,22.932344,79.066765,45.916666666666664
KAREPALLI,KRA,17.511408,80.271865,47.0
KARIMUDDIN PUR,KMDR,25.700369,83.860581,181.5
KARJAT,KJT,18.911158,73.320691,24.533333333333335
KARMALI,KRMI,15.4902129,73.9246644,61.18181818181818
KARNAL,KUN,29.694566,76.969821,59.72222222222222
KARUR,KRR,10.965642,78.085087,13.25
KARWAR,KAWR,14.821387,74.183139,81.89285714285714
KASARA,KSRA,19.647159,73.472003,23.0
KASARAGOD,KGQ,12.491175,74.987652,53.47222222222222
KASGANJ,KSJ,27.801887,78.646026,72.0
KASHI,KEI,25.326564,83.031939,126.33333333333333
KASHIPUR,KPV,29.204978,78.96071,4.5
KASIMPUR,KCJ,26.257189,81.539941,56.0
KATHUA,KTHU,32.397897,75.551922,54.583333333333336
KATIHAR JN,KIR,25.548947,87.566409,160.6875
KATNI,KTE,23.833385,80.400543,120.43661971830986
KATNI MURWARA,KMZ,23.8343563,80.4014844,102.13333333333334
KATNI SOUTH,KTES,23.824725,80.401113,64.25
KATOL,KATL,21.263201,78.590664,41.8
KATPADI JN,KPD,12.972734,79.135341,59.24444444444445
KAVALI,KVZ,14.915993,79.988271,46.214285714285715
KAYALPATTINAM,KZY,8.566912,78.09973,1.0
KAYANKULAM JN,KYJ,9.182586,76.512933,49.5
KAZHAKUTTAM,KZK,8.555848,76.872235,18.5
KAZIPET JN,KZJ,17.974211,79.511025,65.55
KEDGAON,KDG,18.4820853984,74.3763730994,16.0
KELVA ROAD,KLV,19.624601,72.790821,13.0
KEM,KEM,18.1775087935,75.2746262701,24.0
KENDUJHARGARH,KDJR,21.66029,85.626905,220.0
KENGERI,KGI,12.918047,77.48431,49.266666666666666
KERAKAT H,KCT,25.645355,82.924798,123.5
KESAMUDRAM,KDM,17.686252,79.896471,58.0
KESHOD,KSD,21.297662,70.252274,17.0
KESHORAI PATAN,KPTN,25.324522,75.937733,13.5
KESINGA,KSNG,20.188103,83.224709,70.44444444444444
KESRI SINGHPUR,KESR,29.950589,73.61854,18.75
KHACHROD,KUH,23.442673,75.286337,15.5
KHADKI,KK,18.56301,73.840513,20.0
KHAGA,KGA,25.761853,81.102658,99.5
KHAGARIA JN,KGG,25.505891,86.465251,155.0
KHAIRTHAL,KRH,27.797324415,76.6417041217,28.875
KHAJURAHO,KURJ,24.7969839,79.8900217,1.0
KHALARI,KLRE,23.651055,85.001627,92.0
KHALILABAD,KLD,26.77453,83.055073,81.33333333333333
KHALLIKOT,KIT,19.611205,85.128091,39.8
KHAMBHALIYA,KMBL,22.217513,69.657344,55.1
KHAMMAM,KMT,17.249347,80.138491,67.41071428571429
KHANDWA,KNW,21.823596,76.353227,63.02247191011236
KHANNA,KNN,30.707973,76.225134,50.333333333333336
KHANNA BANJARI,KHBJ,23.897087,80.822716,79.5
KHARAGPUR JN,KGP,22.341432,87.328456,166.95384615384614
KHARAR,KARR,30.7263803992,76.6360518042,9.5
KHARIAR ROAD,KRAR,20.9013855558,82.510513277,51.642857142857146
KHARSIA,KHS,21.99178,83.102414,107.4
KHATIPURA,KWP,26.835709,75.890498,67.0
KHED,KHED,17.712059,73.408815,59.45454545454545
KHERLI,KL,27.2002567722,77.0364244739,30.75
KHIJADIYA JN,KJV,21.740875,71.275556,39.5
KHIRKIYA,KKN,22.166444,76.859447,84.0
KHORASON ROAD,KRND,26.089746,82.867173,17.5
KHURAI,KYE,24.051525,78.331128,63.1
KHURDA ROAD JN,KUR,20.153076,85.708234,110.63157894736842
KHURJA JN,KRJ,28.206407,77.81904,94.33333333333333
KHUSROPUR,KOO,25.484893,85.387309,97.2
KICHHA,KHH,28.913427,79.519746,54.25
KIM,KIM,21.399697,72.926702,11.833333333333334
KINWAT,KNVT,19.618502,78.202435,139.0
KIRLOSKARVADI,KOV,17.084152,74.416358,79.75
KISHANGANJ,KNE,26.097746,87.949657,110.65625
KISHANGARH,KSG,26.588968,74.855553,37.88636363636363
KIUL JN,KIUL,25.171504,86.106198,112.19444444444444
KODAIKANAL ROAD,KQN,10.179613,77.909593,13.125
KODERMA,KQR,24.434741,85.529458,177.2173913043478
KODURU,KOU,13.948578,79.345687,25.428571428571427
KOKRAJHAR,KOJ,26.405057,90.274125,126.3
KOLARAS,KLRS,25.224926,77.590411,26.0
KOLAYAT,KLYT,27.835319,72.955074,18.0
KOLKATA,KOAA,22.601175,88.385179,81.94444444444444
KOLLAM JN,QLN,8.886586,76.596753,46.130434782608695
KONDAPALLI,KI,16.623242,80.546693,52.5
KOPARGAON,KPG,19.902943,74.503328,90.78260869565217
KOPPAL,KBL,15.353868,76.143959,33.5
KORBA,KRBA,22.337584,82.713013,0.6666666666666666
KOSAMBA JN,KSB,21.464052,72.954598,11.4
KOSGI,KO,15.847872,77.236408,29.5
KOSI KALAN,KSV,27.788551,77.445999,76.0
KOT KAPURA,KKP,30.578496,74.818173,40.0
KOTA JN,KOTA,25.223553,75.8805,33.82905982905983
KOTABOMMALI,KBM,18.488355,84.199842,12.5
KOTTAYAM,KTYM,9.594177,76.532168,57.3
KOVILPATTI,CVP,9.182578,77.872848,15.08695652173913
KOVVUR,KVR,17.007084,81.726495,53.0
KOZHIKODE,CLT,11.246234,75.780407,51.214285714285715
KRISHNA,KSN,16.409324,77.328563,25.5
KRISHNA CH PURA,KCV,21.824613,86.82005,42.0
KRISHNARAJAPURM,KJM,13.000534,77.674016,66.34146341463415
KSR BANGALORE CY JN,SBC,12.977595,77.568083,31.454545454545453
KUCHAI,KUCE,22.013657,86.695652,37.5
KUCHAMAN CITY,KMNC,27.0535465396,74.8514568066,38.0
KUDACHI,KUD,16.62608,74.858687,67.5
KUDAL,KUDL,16.017651,73.67813,69.16666666666667
KUDRA,KTQ,25.048552,83.793371,159.0
KUHURI,KUU,19.859987,85.3527,22.5
KULEM,QLM,15.334036,74.24423,78.5
KULITTHURAI,KZT,8.302348,77.218817,22.333333333333332
KULPAHAR,KLAR,25.29552,79.63751,167.875
KULTI,ULT,23.737816,86.84887,22.0
KUMARDUBI,KMME,23.747453,86.794065,129.6
KUMBAKONAM,KMU,10.952962,79.388644,57.111111111111114
KUMBHRAJ,KHRJ,24.363097,77.079574,14.0
KUMTA,KT,14.436871,74.420652,97.875
KUNDAPURA,KUDA,13.612909,74.728366,91.25
KUNKAVAV JN,KKV,21.653448,70.975052,35.5
KUPPAM,KPN,12.746834,78.339549,92.13333333333334
KURDUVADI,KWV,18.091348,75.417118,48.11538461538461
KURNOOL CITY,KRNT,15.833715,78.032655,35.34615384615385
KURUKSHETRA JN,KKDE,29.96944,76.852795,62.357142857142854
KURUMBUR,KZB,8.585755,78.03964,2.0
KUTRALAM,KTM,11.069825,79.557389,29.0
KUTTIPPURAM,KTU,10.845724,76.033397,23.4
LADNUN,LAU,27.64255,74.4056,46.125
LAKHERI,LKE,25.639864,76.192147,18.0
LAKHTAR,LTR,22.873403,71.776727,3.0
LAKSAR JN,LRJ,29.754038,78.019628,36.833333333333336
LAL KUAN,LKU,29.071574,79.517641,36.0
LALGARH JN,LGH,28.043638,73.313909,25.928571428571427
LALGUDI,LLI,10.875733,78.813672,20.5
LALITPUR,LAR,24.688222,78.395791,62.256410256410255
LALPUR JAM,LPJ,22.1945375806,69.9524202618,179.0
LAMBHUA,LBA,26.133687,82.223283,40.5
LANJIGARH ROAD,LJR,19.9434221772,83.4003416858,25.5
LASALGAON,LS,20.154848,74.225976,15.25
LATEHAR,LTHR,23.725092,84.46812,99.5
LATHI,LAT,21.73935,71.386531,44.5
LATUR,LUR,18.429166,76.556049,2.6666666666666665
LATUR ROAD,LTRR,18.506494,76.845289,7.5
LEHRA GAGA,LHA,29.937832,75.810079,11.5
LILIYA MOTA,LMO,21.540317,71.372863,28.666666666666668
LIMBDI,LM,22.56604,71.789599,13.0
LINGAMPALLI,LPI,17.482874,78.316774,24.375
LOHARU,LHU,28.427051,75.801613,51.714285714285715
LOHTA,LOT,25.3156017921,82.9306636823,90.0
LOISINGHA,LSX,20.852667,83.514083,202.75
LOKMANYATILAK T,LTT,19.07032,72.891739,72.40579710144928
LONAND JN,LNN,18.040769,74.190477,101.0
LONAVALA,LNL,18.748883,73.407657,41.096774193548384
LONDA JN,LD,15.450273,74.496982,80.0
LUCKEESARAI JN,LKR,25.1716617005,86.093210587,82.625
LUCKNOW NE,LJN,26.831967,80.918587,16.285714285714285
LUCKNOW NR,LKO,26.830675,80.925291,80.20253164556962
LUDHIANA JN,LDH,30.912367,75.847873,35.74324324324324
LUMDING JN,LMG,25.750036,93.1766,103.8
LUNI JN,LUNI,26.001256,73.003175,26.94736842105263
LUNKARANSAR,LKS,28.493395,73.743155,21.5
MACHILIPATNAM,MTM,16.171258,81.137763,32.5
MADAN MAHAL,MML,23.159475,79.920425,36.05882352941177
MADANAPALLE RD,MPL,13.644442,78.554424,48.875
MADDUR,MAD,12.604742,77.049522,11.6
MADGAON,MAO,15.267911,73.970724,59.15909090909091
MADHA,MA,18.029712,75.546507,11.0
MADHI,MID,21.145672,73.24268,98.5
MADHIRA,MDR,16.921826,80.366849,66.46153846153847
MADHOSINGH,MBS,25.249931,82.552278,0.0
MADHUBANI,MBI,26.348165,86.076784,280.5
MADHUKUNDA,MDKD,23.62663,86.869091,21.5
MADHUPUR JN,MDP,24.270633,86.642183,135.0625
MADURAI JN,MDU,9.919907,78.110314,16.024390243902438
MADURANTAKAM,MMK,12.50442,79.893087,13.333333333333334
MAHAJAN,MHJ,28.793007,73.853666,20.25
MAHASAMUND,MSMD,21.113138,82.10389,30.75
MAHBUBABAD,MABD,17.597561,79.999792,67.74074074074075
MAHBUBNAGAR,MBNR,16.757768,77.999429,45.24
MAHE,MAHE,11.699227,75.546967,20.0
MAHENDRAGARH,MHRG,28.281433,76.14863,46.6
MAHESANA JN,MSH,23.602623,72.388708,17.033898305084747
MAHIDPUR ROAD,MEP,23.567509,75.500338,20.0
MAHOBA,MBA,25.306914,79.849079,192.16666666666666
MAHUVA JN,MHV,21.09412,71.756011,2.3333333333333335
MAIBANG,MBG,25.30497,93.135371,134.5
MAIHAR,MYR,24.255485,80.763148,116.67647058823529
MAIKALGANJ,MINJ,27.7175372166,80.3378219061,0.0
MAJHAGAWAN,MJG,24.913389,80.811656,206.5
MAJRI JN,MJRI,20.139283,79.043522,155.0
MAKRANA JN,MKN,27.037532,74.723149,38.73684210526316
MAKRONIA,MKRN,23.86705,78.808077,19.0
MAKSI,MKC,23.251625,76.159116,23.904761904761905
MALANPUR,MLAR,26.413118,78.272811,29.25
MALATIPATPUR,MLT,19.865258,85.83177,42.5
MALDA TOWN,MLDT,25.015659,88.130338,70.3076923076923
MALERKOTLA,MET,30.529403,75.871692,0.0
MALIPUR,MLPR,26.281482,82.6313,30.5
MALIYA HATINA,MLHA,21.15957,70.299701,18.5
MALKAJGIRI,MJF,17.448392,78.529606,36.0
MALKAPUR,MKU,20.891974,76.202946,73.56
MALOUT,MOT,30.184671,74.495508,38.333333333333336
MALUR,MLO,12.992108,77.940033,108.0
MAMBALAM,MBM,13.038154,80.228164,7.666666666666667
MANAMADURAI JN,MNM,9.681539,78.45351,66.33333333333333
MANAPARAI,MPA,10.6075620105,78.4177652356,10.833333333333334
MANCHIRYAL,MCI,18.878745,79.448848,53.05263157894737
MANDAL,MDL,25.4396317383,74.5939589105,13.5
MANDALGARH,MLGH,25.194176,75.08094,16.0
MANDAPAM,MMM,9.280516,79.157354,47.714285714285715
MANDAR HILL,MDLE,24.8060780645,87.0261583057,39.5
MANDASA ROAD,MMS,18.840628,84.494113,21.0
MANDASOR,MDS,24.075937,75.076343,37.1
MANDAWAR M RD,MURD,27.1560976594,76.8508226947,29.25
MANDERDISA,MYD,25.707319,93.123109,185.5
MANDI BAMORA,MABA,24.054032,78.082437,17.25
MANDI DABWALI,MBY,29.966227,74.700155,38.0
MANDI DIP,MDDP,23.093747,77.511077,172.0
MANDYA,MYA,12.529176,76.897256,45.21052631578947
MANGALAGIRI,MAG,16.438256,80.564992,26.25
MANGALORE CNTL,MAQ,12.862325,74.844068,24.166666666666668
MANGALORE JN,MAJN,12.866193,74.88006,41.9375
MANGAON,MNI,18.247286,73.275679,8.0
MANIKPUR JN,MKP,25.063492,81.093657,114.45238095238095
MANINAGAR,MAN,23.000142,72.610413,20.25
MANJESHWAR,MJS,12.724197,74.887582,12.0
MANKAPUR JN,MUR,27.039058,82.227648,96.86666666666666
MANKAR,MNAE,23.420373,87.555822,18.4
MANMAD JN,MMR,20.249887,74.438305,85.51351351351352
MANNARGUDI,MQ,10.674541,79.455639,6.0
MANOHARPUR,MOU,22.373359,85.196894,208.25
MANSA,MSZ,29.989695,75.402584,28.666666666666668
MANSI JN,MNE,25.509398,86.554446,81.16666666666667
MANTHRALAYAM RD,MALM,15.949035,77.299196,50.857142857142854
MANUGURU,MUGR,17.925272,80.799034,42.0
MARIAHU,MAY,25.597006,82.598166,166.83333333333334
MARIANI JN,MXN,26.652435,94.308203,104.0
MARKAPUR ROAD,MRK,15.714678,79.301115,255.0
MARKONA,MKO,21.195555,86.596117,37.5
MAROLI,MRL,21.019949,72.889998,11.0
MARWAR BHINMAL,MBNL,25.000633,72.275398,21.0
MARWAR JN,MJ,25.720479,73.609301,14.590909090909092
MARWAR LOHWAT,MWT,26.981256,72.58927,65.0
MARWAR MATHANYA,MMY,26.532173,72.978778,43.666666666666664
MARWAR MUNDWA,MDW,27.063606,73.815965,14.0
MARWASGRAM,MWJ,24.098212,81.836685,78.5
MASKANWA,MSW,27.0013792301,82.3597396039,96.0
MATA VAISHNO DEVI KATRA,SVDK,32.982814,74.935736,45.529411764705884
MATHURA CANT,MRT,27.491013,77.685113,172.0
MATHURA JN,MTJ,27.480145,77.673117,36.896
MATMARI,MTU,16.046723,77.302973,29.0
MAU JN,MAU,25.93948,83.564347,55.5
MAU RANIPUR,MRPR,25.261271,79.136793,184.08333333333334
MAUR,MAUR,30.062746,75.22772,34.5
MAVELIKARA,MVLK,9.239487,76.545692,46.1
MAVLI JN,MVJ,24.794585,73.973721,58.57142857142857
MAYILADUTURAI J,MV,11.095237,79.62868,47.38461538461539
MECHEDA,MCA,22.414105,87.85883,158.30769230769232
MEERUT CANT,MUT,29.015997,77.686937,22.5
MEERUT CITY,MTC,28.97761,77.675106,29.25
MEGHNAGAR,MGN,22.907459,74.539834,24.15
MEHSI,MAI,26.354898,85.096319,21.75
MELMARUVATTUR,MLMR,12.429554,79.833801,28.529411764705884
MERAMANDOLIL,MRDL,20.802387,85.304943,33.5
MERTA ROAD JN,MTD,26.728077,73.917896,39.5
METUPALAIYAM,MTP,11.299729,76.934533,0.0
MHMDVD KHEDA RD,MHD,22.819556,72.752481,9.0
MIDNAPORE,MDN,22.42498,87.307379,123.05
MIRAJ JN,MRJ,16.819946,74.638839,22.733333333333334
MIRYALAGUDA,MRGA,16.860392,79.533503,60.083333333333336
MIRZAPUR,MZP,25.13435,82.569869,148.1346153846154
MITHAPUR,MTHP,22.411601,69.008695,1.5
MIYAGAM KARJAN,MYG,22.050722,73.120353,13.75
MIYANA,MINA,24.85653,77.472164,28.5
MODRAN,MON,25.187428,72.447631,21.88888888888889
MOGA,MOGA,30.817296,75.168467,7.5
MOHIBULLAPUR,MBP,26.909235,80.938923,17.0
MOKALSAR,MKSR,25.625350216,72.5180445245,21.666666666666668
MOKAMEH JN,MKA,25.391885,85.913049,130.625
MOOKAMBIKA ROAD,BYNR,13.87259,74.63279,61.2
MORADABAD,MB,28.831621,78.765801,62.56666666666667
MORANHAT,MRHT,27.1829782,94.9193076,144.0
MORAPPUR,MAP,12.124073,78.393874,15.153846153846153
MORBI,MVI,22.825342,70.829277,8.5
MORENA,MRA,26.500504,78.003442,66.97058823529412
MORINDA,MRND,30.791519,76.502461,7.0
MOTIPUR,MTR,26.257038721,85.1681972229,38.5
MUDDANURU,MOO,14.688415,78.395393,32.25
MUDIGUBBA,MGB,14.349934,77.994996,18.0
MUDKHED,MUE,19.148087,77.509661,56.0
MUKERIAN,MEX,31.941873,75.611838,37.285714285714285
MULACALACHERUVU,MCU,13.802188,78.264829,58.25
MULANUR,MAR,12.661485,78.406389,19.5
MULKI,MULK,13.068517,74.804962,78.16666666666667
MULTAI,MTY,21.783543,78.26283,36.5
MUMBAI CENTRAL,MMCT,18.9697,72.8194,7.5
MUNGAOLI,MNV,24.402175,78.11099,181.0
MUNIGUDA,MNGD,19.62753,83.488343,65.9375
MURADI,MDF,23.593092,86.80929,22.0
MURDESHWAR,MRDW,14.100277,74.505247,27.5
MURI,MURI,23.376284371,85.8669906885,128.33333333333334
MURTAJAPUR,MZR,20.736468,77.354825,48.35294117647059
MUSAFIR KHANA,MFKA,26.379585,81.799817,54.5
MUZAFFARNAGAR,MOZ,29.468689,77.707807,26.357142857142858
MUZAFFARPUR JN,MFP,26.122311,85.378006,112.3
MYSORE JN,MYS,12.318946,76.646013,35.4
NADBAI,NBI,27.2136743084,77.2080875122,30.5
NADIAD JN,ND,22.694106,72.855718,19.732558139534884
NADIKODE,NDKD,16.590634,79.723565,56.2
NAGAL,NGL,29.832554,77.62227,0.0
NAGAR UNTARI,NUQ,24.285735,83.514165,115.0
NAGARSOL,NSL,20.102455,74.541646,58.5
NAGAUR,NGO,27.199991,73.723572,43.5
NAGBHIR JN,NAB,20.579812,79.700138,46.333333333333336
NAGDA JN,NAD,23.45592,75.412491,38.34177215189873
NAGER COIL TOWN,NJT,8.1995718109,77.4194318207,19.4
NAGERCOIL JN,NCJ,8.17385,77.44347,43.6875
NAGINA,NGG,29.437919,78.424119,43.5
NAGIREDDIPALLI,NRDP,17.422255,78.939987,44.0
NAGPUR,NGP,21.153567,79.089004,71.7185628742515
NAHARKATIYA,NHK,27.289403,95.329775,82.0
NAIHATI JN,NH,22.888555,88.4185,22.5
NAILA,NIA,22.022964,82.564589,67.0
NAINI,NYN,25.393138,81.860042,114.04545454545455
NAINPUR JN,NIR,22.425676,80.108853,74.5
NAJIBABAD JN,NBD,29.60354,78.335733,60.0
NALANDA,NLD,25.122359,85.462774,105.5
NALGONDA,NLDA,17.06118,79.283436,61.25
NALWAR,NW,16.936043,77.019937,31.666666666666668
NANDGAON,NGN,20.307616,74.659526,90.0
NANDOL DEHEGAM,NHM,23.17417,72.815845,10.0
NANDURA,NN,20.838889,76.460158,49.78947368421053
NANDURBAR,NDB,21.374812,74.246482,50.645833333333336
NANDYAL,NDL,15.468024,78.472545,238.5
NANGAL DAM,NLDM,31.370543,76.372615,27.5
NANGLOI,NNO,28.686261,77.056966,50.0
NANGUNERI,NNN,8.4891,77.662592,9.0
NAPASAR,NPS,27.980942,73.56399,55.4
NARAINA,NRI,26.796464,75.193029,30.0
NARAJ MARTHAPUR,NQR,20.459324,85.779525,35.25
NARASAPUR,NS,16.445891,81.699909,26.0
NARASARAOPET,NRT,16.231527,80.041607,267.0
NARASINGAPALLI,NASP,17.606751,82.891038,33.0
NARDANA,NDN,21.178209,74.828747,10.0
NARELA,NUR,28.846886,77.085727,51.5
NARKATIAGANJ JN,NKE,27.105035,84.464045,17.0
NARKHER,NRKR,21.468725,78.524814,42.166666666666664
NARNAUL,NNL,28.044396,76.123133,12.5
NARODA,NRD,23.085662,72.658017,10.0
NARSINGHPUR,NU,22.943112,79.214385,91.0
NARSIPATNAM RD,NRP,17.452852,82.724605,53.0
NARWANA JN,NRW,29.588632,76.109286,26.90909090909091
NASIK ROAD,NK,19.947627,73.841897,87.37974683544304
NASIRABAD,NSD,26.29446,74.716991,29.785714285714285
NAUGACHIA,NNA,25.385261,87.09387,213.0
NAUPADA JN,NWP,18.5794097271,84.2829220099,143.0
NAVAGADH,NUD,21.764344,70.616721,16.0
NAVAPUR,NWU,21.166844,73.771183,54.8
NAVSARI,NVS,20.946851,72.914294,19.142857142857142
NAWA CITY,NAC,27.029479,74.998832,47.07142857142857
NAWALGARH,NWH,27.8440174321349,75.2460831776261,19.5
NAWANDGI,NAW,17.2170998262,77.427908244,45.0
NAWAPARA ROAD,NPD,20.809717,82.562564,45.0
NAYUDUPETA,NYP,13.908321,79.900898,44.4
NAZARETH,NZT,8.563997,77.976271,12.5
NEKONDA,NKD,17.794878,79.804593,58.0
NELLORE,NLR,14.460592,79.989383,85.375
NEPANAGAR,NPNR,21.463933,76.397032,171.0
NEW ALIPURDAUR,NOQ,26.48572,89.541398,88.05
NEW BONGAIGAON,NBQ,26.4758354405,90.5368434644,121.60714285714286
NEW COOCH BEHAR,NCB,26.353159,89.469766,96.125
NEW DELHI,NDLS,28.642314,77.220004,50.95798319327731
NEW FARAKKA JN,NFK,24.794558,87.915236,72.375
NEW GUNTUR,NGNT,16.3100404,80.4582228,2.0
NEW HAFLONG,NHLG,25.1481,93.0319,133.8
NEW JALPAIGURI,NJP,26.683025,88.443391,103.925
NEW MISAMARI,NMM,26.810166,92.575454,120.5
NEW MORINDA,NMDA,30.776469,76.518125,9.0
NEW TINSUKIA JN,NTSK,27.479748,95.334128,91.0
NEYYATTINKARA,NYY,8.41041,77.08111,40.0
NIDADAVOLU JN,NDD,16.898297,81.675504,99.66666666666667
NIDUBROLU,NDO,16.067904,80.557243,30.25
NIHALGARH,NHH,26.460131,81.632581,72.6
NILESHWAR,NLE,12.255885,75.13575,24.6
NIM KA THANA,NMK,27.741573,75.779691,13.666666666666666
NIMACH,NMH,24.459873,74.853025,27.8
NIMBAHERA,NBH,24.623252,74.694312,15.0
NINGALA JN,NGA,22.0252,71.709352,17.0
NIPHAD,NR,20.096584,74.079481,17.5
NIRAKARPUR,NKP,19.991741,85.530464,22.5
NIVARI,NEW,25.328061,78.82007,201.0
NIZAMABAD,NZB,18.679165,78.103238,61.90909090909091
NOKHA,NOK,27.556203,73.474848,41.67857142857143
NORLA ROAD,NRLR,20.041394,83.373301,55.0
NSC BOSE J GOMO,GMO,23.873106,86.14823,161.76666666666668
NUZVID,NZD,16.649931,80.961528,30.75
OBAIDULLA GANJ,ODG,22.994912,77.587299,22.75
OBULAVARIPALLI,OBVP,14.04083,79.268221,34.0
ODDANCHATRAM,ODC,10.4855987634,77.7465317596,8.0
ODELA,OEA,18.4565542411,79.4497442804,45.0
OKHA,OKHA,22.47096,69.073775,50.0
ONDAGRAM,ODM,23.147974,87.202275,42.5
ONGOLE,OGL,15.498064,80.057404,91.18446601941747
ORAI,ORAI,25.9825370076,79.459533963,90.0
OSIYAN,OSN,26.729223,72.899779,43.0
OTTAPPALAM,OTP,10.770046,76.377993,29.9
PACHOR ROAD,PFR,23.729095,76.741609,22.0
PACHORA JN,PC,20.668385,75.34831,89.85714285714286
PADADHARI,PDH,22.429596,70.605343,22.0
PAHARPUR,PRP,24.624932,85.204571,158.0
PAKALA JN,PAK,13.451133,79.11408,31.428571428571427
PAKUR,PKR,24.638002,87.856054,181.5
PALAKKAD JN,PGT,10.802091,76.641926,57.86363636363637
PALAKOLLU,PKO,16.522244,81.717145,39.5
PALAM,PM,28.585656,77.09295,7.5
PALANI,PLNI,10.458722,77.521183,7.5
PALANPUR JN,PNU,24.174433,72.430172,9.843137254901961
PALASA,PSA,18.756782,84.422091,97.67213114754098
PALEJ,PLJ,21.921578,73.072387,13.625
PALGHAR,PLG,19.698038,72.77248,19.608695652173914
PALGHAT TOWN,PGTN,10.7753892,76.652167,10.0
PALI MARWAR,PMY,25.790692,73.327309,20.954545454545453
PALITANA,PIT,21.538301,71.823197,3.0
PALWAL,PWL,28.151841,77.342232,126.5
PANAGARH,PAN,23.443034,87.439587,60.45454545454545
PANDAVAPURA,PANP,12.463018,76.681387,9.333333333333334
PANDHARPUR,PVR,17.66849,75.319283,14.5
PANDHURNA,PAR,21.589996,78.525394,51.06666666666667
PANIPAT JN,PNP,29.388948,76.963793,45.23076923076923
PANRUTI,PRT,11.773239,79.555153,22.25
PANSKURA,PKU,22.393102763,87.7430237079,58.7
PANVEL,PNVL,18.990919,73.121756,46.395833333333336
PAPANASAM,PML,10.922767,79.268542,3.25
PARADIP,PRDP,20.280364,86.620141,51.5
PARAMAKKUDI,PMK,9.539071,78.591131,52.5
PARASHSHALA,PASA,8.3398400051,77.16548966,36.0
PARASNATH,PNME,23.987971,86.037862,163.4375
PARAVUR,PVU,8.815758,76.668238,23.0
PARBHANI JN,PBN,19.25746,76.774119,73.66666666666667
PARDI,PAD,20.513153,72.924311,15.0
PARHIHARA,PIH,27.926801,74.559809,24.0
PARPANANGADI,PGI,11.04591,75.861006,22.285714285714285
PARSABAD,PSB,24.307559,85.73873,116.0
PARVATIPURAM,PVP,18.77067,83.426966,52.166666666666664
PARVATIPURAM TN,PVPT,18.783875,83.433701,42.6
PATAN,PTN,23.853292,72.131672,20.0
PATAUDI ROAD,PTRD,28.350738,76.755565,14.272727272727273
PATHANKOT,PTK,32.271804,75.644427,12.5
PATHANKOT CANTT,PTKC,32.2593,75.636044,31.642857142857142
PATHARIA,PHA,23.905726,79.192899,61.75
PATLIPUTRA,PPTA,25.621426,85.068505,149.6
PATNA JN,PNBE,25.60256,85.136824,115.35593220338983
PATNA SAHEB,PNC,25.585856,85.230942,126.2
PATRATU,PTRU,23.667024,85.305877,79.5
PATTAMBI,PTB,10.8019329802,76.1813366473,26.25
PAWAPURI ROAD,POE,25.160225,85.512918,105.5
PAYANGADI,PAZ,12.021508,75.2596,18.333333333333332
PAYYANUR,PAY,12.092248,75.195107,38.214285714285715
PEDANA,PAV,16.252107,81.143792,53.5
PEDDAPALLI,PDPL,18.613796,79.39208,53.0
PENDRA ROAD,PND,22.755825,81.89917,125.66666666666667
PENUKONDA,PKD,14.099641,77.592521,35.5
PERAMBUR,PER,13.10702,80.244533,66.09836065573771
PERNEM,PERN,15.707894,73.816537,57.125
PHAGWARA JN,PGW,31.2175557498,75.7655019775,47.43478260869565
PHALODI JN,PLCJ,27.124914,72.366863,31.4
PHAPHUND,PHD,26.6321183177,79.5542552124,85.0
PHULERA JN,FL,26.872814,75.245456,17.0
PHULWARI SHARIF,PWS,25.586297,85.07943,109.5
PIDUGURALLA,PGRL,16.477787,79.876294,58.8
PILER,PIL,13.662347,78.927499,43.0
PILI BANGAN,PGK,29.483825,74.079282,24.5
PIMPALKHUTI,PMKT,19.829473,78.581025,121.0
PINDRA ROAD,PDRD,25.497052,82.851162,38.0
PIPAR ROAD JN,PPR,26.45285,73.448703,21.5
PIPARIYA,PPI,22.753941,78.354538,96.78571428571429
PIPRA,PPA,26.489784,84.985735,44.5
PITHAPURAM,PAP,17.11087,82.257512,53.5
PMBAKVL SHANDY,PBKS,9.130538,77.431001,17.75
PODANUR JN,PTJ,10.965425,76.990125,12.428571428571429
POKHRAYAN,PHN,26.222964,79.840888,78.82352941176471
POKRAN,POK,26.930571,71.923129,38.8
POLLACHI JN,POY,10.653079,77.001342,11.0
PONDURU,PDU,18.362876,83.776548,17.0
PONMALAI GLD RCK,GOC,10.791837,78.709755,27.0
PORBANDAR,PBR,21.643598,69.615506,127.33333333333333
PRANTIJ,PRJ,23.439324,72.862688,5.0
PRANTIK,PNE,23.694435,87.693501,27.5
PRAYAG JN,PRG,25.467939,81.867081,235.0
PRAYAGRAJ JN,PRYJ,25.4453,81.8253,142.54098360655738
PUDUCHERRY,PDY,11.925446,79.828127,68.75
PUDUKKOTTAI,PDKT,10.372457,78.801946,42.0
PULGAON JN,PLO,20.726734,78.318111,35.55
PUNE JN,PUNE,18.529378,73.873086,50.5
PUNKUNNAM,PNQ,10.535054,76.20943,26.5
PURI,PURI,19.811459,85.839992,58.87234042553192
PURNA JN,PAU,19.180527,77.024985,43.111111111111114
PURNIA JN,PRNA,25.790678,87.519124,250.0
PURULIA JN,PRR,23.324911,86.37787,179.85714285714286
PUTTUR,PUT,13.439642,79.552666,13.75
QUILANDI,QLD,11.446139,75.693924,27.5
RADHANPUR,RDHP,23.84693,71.585594,11.142857142857142
RAE BARELI JN,RBL,26.232684,81.23932,62.5
RAFIGANJ,RFJ,24.819694,84.634804,146.9
RAGHUNATHPUR,RPR,25.565439,84.305227,157.25
RAHAMA,RHMA,20.298605,86.405224,54.0
RAI SINGH NAGAR,RSNR,29.535956,73.450472,19.166666666666668
RAICHUR,RC,16.192441,77.339165,44.3
RAIGARH,RIG,21.891289,83.39067,161.54545454545453
RAIKA BAGH,RKB,26.291628,73.039744,20.5
RAIPUR JN,R,21.256462,81.629328,91.88505747126437
RAIRAKHOL,RAIR,21.046745,84.333562,99.6875
RAJ GANGPUR,GP,22.186062,84.582051,188.16666666666666
RAJ NANDGAON,RJN,21.101186,81.039019,87.20833333333333
RAJA KI MANDI,RKM,27.193811,77.996613,71.8
RAJALDESAR,RJR,28.033672,74.477712,53.6
RAJALUKAH,RJLK,22.125193,86.642242,37.5
RAJAMUNDRY,RJY,16.984159,81.783901,111.27884615384616
RAJAPALAYAM,RJPM,9.452404,77.561026,20.5
RAJAPUR ROAD,RAJP,16.635175,73.626565,41.5
RAJGARH,RHG,27.240827,76.607541,33.666666666666664
RAJGIR,RGD,25.033069,85.414697,80.0
RAJKHARSAWAN JN,RKSN,22.733525,85.811158,200.0
RAJKOT JN,RJT,22.312206,70.803446,62.088235294117645
RAJPURA JN,RPJ,30.486458949,76.5940201901,26.555555555555557
RAJULA JN,RLA,21.103699,71.479251,18.666666666666668
RAKHA MINES,RHE,22.674292,86.354133,156.5
RAM NAGAR J K,RMJK,32.863528,75.145426,66.0
RAMANAGARAM,RMGM,12.720096,77.283451,19.285714285714285
RAMANATHAPURAM,RMD,9.358387,78.836862,75.85714285714286
RAMANNAPET,RMNP,17.282344,79.087023,54.0
RAMBHA,RBA,19.537957,85.094079,23.0
RAMDEVRA,RDRA,27.006279,71.929837,36.2
RAMESWARAM,RMM,9.280973,79.306787,0.0
RAMGANJ MANDI,RMA,24.644606,75.939411,31.375
RAMGARH,RAH,27.576612,76.811256,38.666666666666664
RAMGARH CANT,RMT,23.617327,85.520249,62.0
RAMGUNDAM,RDM,18.763329,79.4351,61.26923076923077
RAMNAGAR,RMR,29.390223,79.122239,0.0
RAMNAGAR BENGAL,RMRB,21.677451,87.55405,138.75
RAMPUR,RMU,28.778863,79.023419,37.5
RAMPUR HAT,RPH,24.179797,87.782147,89.84615384615384
RAMPURA BERI,RMB,28.5301320576,75.6454798285,22.5
RAMPURA PHUL,PUL,30.269357,75.23738,38.666666666666664
RANAPRATAPNAGAR,RPZ,24.582417,73.728056,61.0
RANCHI,RNC,23.348811,85.33352,99.8
RANGAPARA NORTH,RPAN,26.8215934,92.682658,120.5
RANGIYA JN,RNY,26.447901,91.605929,126.4375
RANI,RANI,25.347582,73.31039,13.11111111111111
RANI KAMLAPATI,RKMP,23.2216,77.4401,32.113207547169814
RANIBENNUR,RNR,14.625461,75.635054,23.9
RANIGANJ,RNG,23.602851,87.11698,59.38461538461539
RANIWARA,RNV,24.750455,72.204293,24.857142857142858
RANPUR,RUR,22.359871,71.717303,11.0
RATANGARH JN,RTGH,28.0665867073,74.6236025668,41.95454545454545
RATLAM JN,RTM,23.34038,75.050826,42.6140350877193
RATNAGIRI,RN,17.002793,73.356938,70.76190476190476
RAVER,RV,21.222201,76.044594,165.0
RAVINDRAKHANI,RVKH,18.936594,79.461396,44.5
RAXAUL JN,RXL,26.987018,84.844564,151.0
RAYAGADA,RGDA,19.175642,83.410505,49.1
RAYANAPAD,RYP,16.577504,80.562937,83.0
RAYBAG,RBG,16.483374512,74.8068256635,69.0
RAZAMPETA,RJP,14.184525,79.152741,36.888888888888886
REN,REN,26.788798,74.074462,16.0
RENGALI,RGL,21.636895,84.042299,153.83333333333334
RENIGUNTA JN,RU,13.636261,79.50629,77.31428571428572
RENUKUT,RNQ,24.203558,83.039896,120.5
RENWAL,RNW,27.149463,75.356234,14.5
REWA,REWA,24.537122,81.250615,13.777777777777779
REWARI,RE,28.202779,76.609414,26.86111111111111
RIKHABDEV ROAD,RDD,23.997173,73.748055,4.0
RINGAS JN,RGS,27.373379,75.563604,22.3
RJNDR NGR BIHAR,RJPB,25.603351,85.162449,86.33333333333333
ROHA,ROHA,18.44649043,73.12357712,42.375
ROHTAK JN,ROK,28.890904,76.57955,27.636363636363637
ROORKEE,RK,29.851671,77.87417,41.111111111111114
ROURKELA,ROU,22.22844,84.863132,206.75925925925927
RUDAULI,RDL,26.762188,81.754202,57.0
RUDRAPUR CITY,RUPC,28.969281,79.379212,6.0
RUPNAGAR,RPAR,30.972816,76.533241,48.25
RUPSA JN,ROP,21.621995,87.018507,44.5
RURA,RURA,26.485377,79.908216,58.5
RUSERA GHAT,ROA,25.746302,86.035742,325.0
RUTHIYAI,RTA,24.531922,77.175827,32.666666666666664
S BHAKHTIYARPUR,SBV,25.7208597875,86.5973840167,39.0
SABARMATI JN,SBT,23.077546,72.589282,13.5
SACHIN,SCH,21.077673,72.874083,12.5
SADULPUR JN,SDLP,28.631138,75.386989,43.2
SADULSHAHR,SDS,29.9026414304178,74.1727044526488,26.25
SAGAULI JN,SGL,26.758187,84.73934,23.25
SAHARANPUR,SRE,29.960529,77.541739,47.888888888888886
SAHARSA JN,SHC,25.875208,86.594953,21.25
SAHIBZADA ASNGR,SASN,30.666125,76.739952,10.333333333333334
SAI P NILAYAM,SSPN,14.160468,77.757559,124.0
SAIDAPUR,SADP,16.5700011556,77.2497912268,32.8
SAINAGAR SHIRDI,SNSI,19.7807923,74.4806877,52.0
SAINTALA,SFC,20.433878,83.335045,202.25
SAINTHIA,SNT,23.949741,87.681205,29.25
SAKHI GOPAL,SIL,19.942882,85.816074,73.22222222222223
SAKHOTI TANDA,SKF,29.192626,77.718049,22.5
SAKRI JN,SKI,26.208947,86.078137,283.0
SAKTI,SKT,22.011785,82.956526,99.5
SALBONI,SLB,22.640971,87.321899,32.25
SALEM JN,SA,11.671726,78.113415,44.51086956521739
SALEM TOWN,SXT,11.660046,78.162096,8.5
SALPURA,SYL,24.773701,76.733005,15.5
SAMAKHIALI B G,SIOB,23.309819,70.503394,43.464285714285715
SAMALKHA,SMK,29.240172,77.003034,110.25
SAMALKOT JN,SLO,17.044827,82.168724,97.0
SAMALPATTI,SLY,12.311594,78.484032,13.4
SAMARALA,SMRL,30.824281,76.182455,9.0
SAMASTIPUR JN,SPJ,25.858304,85.78736,133.72222222222223
SAMBA,SMBX,32.528358,75.120256,0.0
SAMBALPUR,SBP,21.4830514376,83.9603252667,79.0
SAMBALPUR CITY,SBPY,21.4770222859,84.0076171613,106.84615384615384
SAMBHAR LAKE,SBR,26.904308,75.179915,9.125
SAMDHARI JN,SMR,25.837202,72.573007,39.13333333333333
SAMPLA,SPZ,28.781933,76.773299,27.0
SAMSI,SM,25.276197,88.009757,7.5
SANAT NAGAR,SNF,17.4616070935,78.4359471722,28.75
SANGANER,SNGN,26.814113,75.772245,1.0
SANGARIA,SGRA,29.792508,74.466053,38.5
SANGLI,SLI,16.858669,74.588939,36.916666666666664
SANGMESHWAR,SGR,17.201999,73.546234,45.0
SANGOLA,SGLA,17.435563,75.187581,16.5
SANGRUR,SAG,30.2437913998,75.8305174701,22.545454545454547
SANICHARA,SAC,26.363371,78.198369,16.0
SANJAN,SJN,20.19165,72.820594,15.0
SANKARANKOVIL,SNKL,9.176539,77.525924,20.0
SANKARIDURG,SGE,11.445732,77.870439,18.333333333333332
SANTALDIH,SNTD,23.596661,86.483123,16.5
SANTALPUR,SNLR,23.759161,71.181545,0.0
SANTRAGACHI JN,SRC,22.58393,88.284011,208.68354430379748
SANVERDAM CHUCH,SVM,15.264064,74.10866,66.5
SAPHALE,SAH,19.576592,72.821826,14.5
SARAI MIR,SMZ,26.0281419,82.9239538,18.5
SARANGPUR,SFW,23.5810641859,76.4871872211,15.0
SARDARGRAM,SDGM,23.070758,72.641987,5.0
SAREIGRAM,SGAM,24.039636,82.205614,73.5
SARKHEJ,SEJ,22.981944,72.497486,19.0
SASARAM,SSM,24.955926,84.019423,156.02083333333334
SATARA,STR,17.688361,74.063727,46.8
SATNA,STA,24.568619,80.827717,105.53012048192771
SATNALI,STNL,28.382338,75.966232,24.0
SATTENAPALLE,SAP,16.405018,80.152704,55.9
SATUR,SRT,9.357545,77.92157,22.736842105263158
SAUGOR,SGO,23.84735,78.74292,97.0
SAVARKUNDLA,SVKD,21.335082,71.312667,23.0
SAWAI MADHOPUR,SWM,26.018279,76.35622,36.38
SAWANTWADI ROAD,SWV,15.866512,73.785308,126.66666666666667
SEALDAH,SDAH,22.566758,88.374713,111.9090909090909
SECUNDERABAD JN,SC,17.433147,78.501481,44.72727272727273
SEHORE,SEH,23.215095,77.077882,17.3125
SELU,SELU,19.44806,76.433264,94.5
SEMARI,SES,24.07001,73.841822,9.75
SENDRA,SEU,26.077974,74.194143,21.0
SENGOTTAI,SCT,8.9874125,77.24185,1.6666666666666667
SEOHARA,SEO,29.204807,78.580977,42.5
SEORAPHULI,SHE,22.774749,88.328809,15.5
SERAM,SEM,17.180683,77.28353,59.214285714285715
SEVAGRAM,SEGM,20.739076,78.619225,78.75
SEYDUNGANALLUR,SDNR,8.639358,77.834992,11.5
SHADNAGAR,SHNR,17.064646,78.213273,26.333333333333332
SHAHABAD,SDB,17.121663,76.943513,32.666666666666664
SHAHDOL,SDL,23.285962,81.364073,117.0
SHAHGANJ JN,SHG,26.061399,82.679662,153.71428571428572
SHAHJEHANPUR,SPN,27.894224,79.904605,44.1
SHAJAPUR,SFY,23.425074,76.297843,48.125
SHAKURBASTI,SSB,28.6802273287,77.1299115857,23.083333333333332
SHALIMAR,SHM,22.555508,88.315615,157.97560975609755
SHAMGARH,SGZ,24.191141,75.642842,34.1578947368421
SHAMLAJI ROAD,SJS,23.621619,73.335655,6.25
SHANKARGARH,SRJ,25.1813005966,81.6190324237,95.75
SHANKARPALLI,SKP,17.450825,78.131116,29.0
SHEGAON,SEG,20.801724,76.690331,68.37837837837837
SHERTALAI,SRTL,9.690992,76.325151,76.75
SHIKOHABAD JN,SKB,27.085686,78.574955,85.33333333333333
SHIMOGA TOWN,SMET,13.943037,75.583174,0.0
SHIUPUR,SOP,25.355419,82.946972,211.0
SHIVAJINAGAR,SVJR,18.531738,73.851147,18.8
SHIVPURI,SVPI,25.438444,77.638246,46.333333333333336
SHIVRAMPUR,SWC,25.219375,80.826783,182.91666666666666
SHOLAVANDAN,SDN,10.02227,77.965082,11.75
SHOLINGHUR,SHU,13.013974,79.484589,18.833333333333332
SHORANUR JN,SRR,10.758855,76.272196,46.80952380952381
SHRI GANGANAGAR,SGNR,29.931792,73.871417,15.454545454545455
SHRI KARANPUR,SRW,29.844419,73.458716,20.166666666666668
SHRI MADHOPUR,SMPR,27.457628,75.598294,16.666666666666668
SHRIDHAM,SRID,23.033843,79.484397,61.916666666666664
SHUJALPUR,SJP,23.381236,76.723475,45.625
SIBSAGAR TOWN,SRTN,26.989968,94.643517,140.0
SIDDHPUR,SID,23.918067,72.367959,0.6666666666666666
SIDHAULI,SD,27.281002,80.837587,18.5
SIHOR GUJARAT,SOJN,21.724798,71.957197,19.5
SIHORA ROAD,SHR,23.467136,80.110265,62.0
SIKAR JN,SIKR,27.616275,75.153378,31.0
SILCHAR,SCL,24.830338,92.786795,83.85714285714286
SILIGURI JN,SGUJ,26.723204,88.413663,286.0
SIMALUGURI JN,SLGR,26.917281,94.756816,112.75
SIMHACHALAM,SCM,17.744667,83.220449,101.875
SINDHUDURG,SNDD,16.111322,73.67934,63.166666666666664
SINDI,SNI,20.816446,78.883342,22.125
SINDKHEDA,SNK,21.234022,74.735367,50.6
SINGARAYAKONDA,SKM,15.253118,80.027126,46.2
SINGRAULI,SGRL,24.204257,82.642735,32.25
SINI JN,SINI,22.78946,85.947026,214.0
SIRATHU,SRO,25.650642,81.31786,83.66666666666667
SIRHIND JN,SIR,30.624222,76.383194,48.9
SIRKAZHI,SY,11.240305,79.726353,63.6
SIRPUR KAGAZNGR,SKZR,19.345659,79.489201,53.327586206896555
SIRSA,SSA,29.539153,75.034944,52.5
SIRSAUL,SSL,26.297301,80.462852,97.0
SISWA BAZAR,SBZ,27.1495669522,83.7563490747,16.5
SITAMARHI,SMI,26.594374,85.504707,172.5
SITAPUR,STP,27.558728,80.697762,51.25
SITARAMPUR,STN,23.723864,86.896472,22.333333333333332
SIVAGANGA,SVGA,9.85297,78.499069,51.2
SIVAKASI,SVKS,9.463321,77.789244,19.75
SIWAN JN,SV,26.210724,84.359267,84.61111111111111
SLEEMANABAD RD,SBD,23.614369,80.285208,33.5
SMVT BENGALURU,SMVB,13.0006,77.6418,88.0
SOGARIA,SGAC,25.230055,75.900221,152.8
SOHAGPUR,SGP,22.693813,78.194338,39.166666666666664
SOJAT ROAD,SOD,25.862203,73.755672,11.25
SOLAPUR JN,SUR,17.664496,75.893401,41.5625
SOMPETA,SPT,18.981297,84.5815,133.95238095238096
SONGADH,SGD,21.728936,71.886759,36.625
SONI,SONI,26.527305,78.555226,28.25
SONIPAT JN,SNP,28.989423,77.017343,66.72727272727273
SONPUR JN,SEE,25.696849,85.166851,146.35714285714286
SONUA,SWR,22.576498,85.464081,209.5
SORO,SORO,21.291084,86.692539,106.7
SRI DUNGARGARH,SDGH,28.070311,74.008011,49.214285714285715
SRI KALAHASTI,KHT,13.7463618318,79.6830412451,26.75
SRIKAKULAM ROAD,CHE,18.408679,83.903771,108.36538461538461
SRIKRISHN NAGAR,SKN,25.88403,82.447803,35.5
SRIRAMNAGAR,SRNR,16.306568,77.865894,78.5
SRIRANGAM,SRGM,10.857918,78.696348,26.833333333333332
SRIVAIKUNTAM,SVV,8.622476,77.906323,11.5
SRIVILLIPUTTUR,SVPR,9.497497,77.64494,20.5
SUBEDARGANJ,SFG,25.439879,81.789897,40.1
SUBZI MANDI,SZM,28.668683,77.199696,58.61538461538461
SUDSAR,SDF,28.012356,73.785795,35.25
SUJANGARH,SUJH,27.708763,74.463659,42.125
SUKINDA ROAD,SKND,20.971268,86.05375,226.5
SULLURUPETA,SPE,13.696463,80.018161,76.76
SULTANGANJ,SGG,25.24085,86.736175,88.625
SULTANPUR,SLN,26.263027,82.066106,110.08333333333333
SURAIMANPUR,SIP,25.80918,84.480022,307.0
SURAJPUR ROAD,SJQ,23.289233,82.880146,65.5
SURAT,ST,21.206568,72.840793,20.216494845360824
SURATGARH JN,SOG,29.324152,73.907248,19.0
SURATHKAL,SL,12.989191,74.806177,31.166666666666668
SURENDRANAGAR GATE,SRGT,22.734565,71.636053,2.857142857142857
SURENDRANAGAR JN,SUNR,22.7443,71.630056,50.28947368421053
SURIAWAN,SAW,25.46104,82.423665,50.0
SUWASRA,SVA,24.069844,75.648344,18.583333333333332
TADEPALLIGUDEM,TDD,16.809961,81.526314,102.78378378378379
TADIPATRI,TU,14.907558,77.978985,22.0
TALCHER,TLHR,20.932262,85.200385,75.66666666666667
TALCHER ROAD,TLHD,20.886651,85.207934,67.70588235294117
TALCHHAPAR,TLC,27.824805,74.487037,8.5
TALOD,TOD,23.351348,72.947961,6.5
TAMBARAM,TBM,12.9260356894,80.1191573807,26.372549019607842
TAMLUK,TMZ,22.275813,87.919144,85.625
TANDA URMAR,TDO,31.672179,75.637595,31.5
TANDUR,TDU,17.25044,77.585037,39.0
TANUKU,TNKU,16.752035,81.674075,45.0
TANUR,TA,10.97954,75.880597,21.0
TAPRI,TPZ,29.915728,77.583272,15.375
TARIKERE,TKE,13.710886,75.812209,16.0
TATANAGAR JN,TATA,22.768954,86.20056,219.6326530612245
TENALI JN,TEL,16.242409,80.640413,84.91489361702128
TENKASI JN,TSI,8.963993,77.307338,16.333333333333332
THAKURTOTA,TKH,21.651992,86.970717,44.0
THALASSERY,TLY,11.75314,75.492987,68.72222222222223
THAN JN,THAN,22.57896,71.206533,11.75
THANDLA RD,THDR,23.032708,74.666939,21.0
THANE,TNA,19.185757,72.975417,55.66197183098591
THANJAVUR,TJ,10.778085,79.138296,56.22222222222222
THERUBALI,THV,19.335826,83.421309,21.5
THIRUVARUR JN,TVR,10.764347,79.633898,24.25
THIVIM,THVM,15.62955,73.876104,76.11111111111111
THRISUR,TCR,10.51479,76.207919,53.53333333333333
TIKAMGARH,TKMG,24.7672962666,78.8406655457,21.5
TILARU,TIU,18.4704858205,84.0726809924,13.5
TILDA,TLD,21.550734,81.794586,42.2
TIMARNI,TBN,22.37586,77.2294,121.6
TINDIVANAM,TMV,12.229411,79.651335,16.46153846153846
TIPTUR,TTR,13.256152,76.475987,10.833333333333334
TIRORA,TRO,21.415039,79.918035,53.833333333333336
TIRUCHCHIRAPALI,TPJ,10.794067,78.685355,24.28846153846154
TIRUCHENDUR,TCN,8.501774,78.117118,1.0
TIRUCHRPALI TWN,TPTN,10.829084,78.702834,3.5
TIRUKOILUR,TRK,11.976052306,79.223813739,79.0
TIRUMANGALAM,TMQ,9.824778,77.990902,14.0
TIRUNELVELI JN,TEN,8.73636,77.707979,16.074074074074073
TIRUPADRIPULYUR,TDPR,11.748883,79.753349,39.8
TIRUPATI,TPTY,13.62763,79.418968,72.6
TIRUPATTUR JN,TPT,12.497951,78.561419,14.2
TIRUPPUR,TUP,11.108906,77.341247,46.07142857142857
TIRUR,TIR,10.917757,75.921865,60.67857142857143
TIRUTTANGAL,TTL,9.4772991528,77.8108864374,11.25
TIRUTTANI,TRT,13.179217,79.611386,22.666666666666668
TIRUVALLA,TRVL,9.392148,76.580267,50.25
TIRUVALLUR,TRL,13.115764,79.913105,12.75
TIRUVANNAMALAI,TNM,12.238103,79.077782,90.33333333333333
TITLAGARH,TIG,20.284399,83.154382,85.6875
TIVARI,TIW,26.55473,72.889577,58.0
TOHANA,TUN,29.7266,75.904581,23.857142857142858
TORI,TORI,23.680808,84.739774,98.5
TRIUPUNITTURA,TRTR,9.9501,76.352761,26.5
TRIVANDRUM CNTL,TVC,8.486679,76.95121,42.12
TRIVANDRUM NORTH,TVCN,8.509,76.897,9.714285714285714
TRIVANDRUM PETT,TVP,8.494524,76.931673,58.666666666666664
TULJAPUR,TGP,20.800701,78.808237,12.5
TULSIPUR,TLR,27.5317699289,82.4114096783,56.0
TUMKUR,TK,13.333033,77.102439,20.708333333333332
TUMSAR ROAD,TMR,21.342437,79.751419,83.88888888888889
TUNDLA JN,TDL,27.207747,78.233285,109.0
TUNI,TUNI,17.36108,82.542462,72.76190476190476
TURAVUR,TUVR,9.772809,76.309979,28.0
TUTI MELUR,TME,8.808374,78.145808,2.0
TUTICORIN,TN,8.806109,78.155359,1.0
UDAIPUR CITY,UDZ,24.566862,73.699632,64.0909090909091
UDALGURI,ULG,26.744291,92.094329,118.0
UDGIR,UDGR,18.3906018255,77.1099430353,14.5
UDHNA JN,UDN,21.171156,72.851461,32.1796875
UDUPI,UD,13.336341,74.771733,60.02777777777778
UDVADA,UVD,20.461236,72.918698,21.333333333333332
UJJAIN JN,UJN,23.178154,75.781403,50.276923076923076
ULUBARIA,ULB,22.472428,88.093209,116.75
UMARIA,UMR,23.52273,80.823244,40.5
UMBARGAM ROAD,UBR,20.153499,72.790821,18.5
UMDANAGAR,UR,17.262932,78.393143,20.666666666666668
UMRA,UMRA,24.522588,73.771734,9.5
UNA HIMACHAL,UHL,31.478782,76.27566,7.5
UNCHHERA,UHR,24.38137,80.79457,38.5
UNJHA,UJA,23.796456,72.381669,13.4
UNNAO JN,ON,26.548354,80.486199,50.06896551724138
UPLETA,UA,21.746916,70.282434,389.5
UPPAL,OPL,18.183408,79.48098,71.5
URULI,URI,18.494237,74.13682,13.0
USLAPUR,USL,22.102548,82.111546,6.75
USMANABAD,UMD,18.248154,76.022663,20.75
UTARLAI,UTL,25.788344,71.443638,11.5
Unknown Station,KCVL,8.509254,76.8961,31.4
V LAKSHMIBAI JHANSI,VGLJ,25.4439,78.5533,60.666666666666664
VADAKARA,BDJ,11.5933214,75.5869409,58.5
VADIYA DEVLI,VDV,21.689791,70.853196,35.0
VADODARA JN,BRC,22.310756,73.181065,28.322115384615383
VAIBHAVWADI RD,VBW,16.512013,73.707645,41.0
VAIKAM ROAD,VARD,9.777648,76.474611,39.5
VAITARNA,VTN,19.517672,72.849578,14.5
VAITHISVARAN KOIL,VDL,11.195825,79.703785,16.5
VALAPPADI G HLT,VGE,11.654624,78.400452,3.5
VALLIYUR,VLY,8.37616,77.61399,11.416666666666666
VALSAD,BL,20.6085595,72.9335291,21.986842105263158
VANCHI MANIYACHCHI,MEJ,8.882103,77.890651,16.0
VANGAON,VGN,19.882845,72.763185,13.5
VANIYAMBADI,VN,12.678487,78.621651,14.875
VAPI,VAPI,20.374338,72.909127,29.157894736842106
VARANASI JN,BSB,25.327281,82.986468,103.2
VARKALA,VAK,8.740732,76.722872,32.44444444444444
VASAI ROAD,BSR,19.3824486,72.8322217,39.96296296296296
VASCO DA GAMA,VSG,15.397241,73.813425,221.5
VASTRAPUR,VTP,23.00802,72.517982,8.0
VATVA,VTA,22.9597285492,72.6294363164,4.0
VEDAYAPALEM,VDE,14.404478,79.957106,74.0
VEER,VEER,18.1134017933,73.3300770068,16.5
VELLORE CANT,VLR,12.910718,79.127493,84.66666666666667
VENKATAGIRI,VKI,13.943864,79.603987,41.25
VERAVAL,VRL,20.913351,70.370689,4.333333333333333
VIDISHA,BHS,23.5222886,77.8148356,71.16129032258064
VIJAYAPURA,BJP,16.8310603,75.7400012,43.0
VIJAYAWADA JN,BZA,16.518262,80.618648,80.3945945945946
VIJIYPUR JAMMU,VJPJ,32.57197,75.020996,36.0
VIKARABAD JN,VKB,17.337132,77.909409,39.0
VIKRAMGARH ALOT,VMA,23.765121,75.538379,22.807692307692307
VILAVADE,VID,16.785593,73.619321,44.0
VILLUPURAM JN,VM,11.942971,79.500101,30.0
VINDHYACHAL,BDL,25.1607717,82.5020212,126.9
VIRAMGAM JN,VG,23.129098,72.052968,40.854838709677416
VIRAR,VR,19.454407,72.811737,16.4
VIRBHADRA,VRH,30.074509,78.251864,11.0
VIRPUR,VRR,21.848343,70.707212,18.0
VIRUDUNAGAR JN,VPT,9.596405,77.957737,20.03030303030303
VISHAKAPATNAM,VSKP,17.72159,83.289514,84.43243243243244
VISHNUPURAM,VNUP,16.7045104904,79.6387859326,43.5
VISHVAMITRI,VS,22.283933,73.178656,9.2
VIZIANAGRAM JN,VZM,18.111374,83.395586,107.80392156862744
VRIDHACHALAM JN,VRI,11.534965,79.316073,27.21951219512195
VYARA,VYA,21.118142,73.383847,44.22222222222222
WADAKANCHERI,WKI,10.648956,76.237041,39.1
WADI,WADI,17.054312,76.99155,26.5
WADSA,WSA,20.624198,79.963513,29.0
WALAJAH ROAD JN,WJR,12.970676,79.360511,13.727272727272727
WANI,WANI,20.06638,78.962635,153.5
WANKANER JN,WKR,22.622552,70.965617,12.24
WANPARTI ROAD,WPR,16.3820535896,77.8851499829,37.0
WANSJALIYA,WSJ,21.799383,69.873569,19.0
WARANGAL,WL,17.972477,79.604929,71.6236559139785
WARDHA JN,WR,20.732777,78.594157,75.22033898305085
WARIA,OYR,23.537562,87.246177,18.0
WARORA,WRR,20.244263,79.009944,41.7
WASHIM,WHM,20.103101,77.147986,38.42857142857143
WENA,WENA,25.3266239799,85.5319560193,108.5
WHITEFIELD,WFD,12.995253,77.761305,31.8
YADGIR,YG,16.744396,77.130366,26.944444444444443
YALVIGI,YLG,15.0342535867,75.4094012659,10.0
YAMUNA BDG AGRA,JAB,27.191512,78.038127,35.0
YAMUNANAGAR JAGADHRI,YJUD,30.1174255334,77.2875799665,52.0
YELHANKA JN,YNK,13.102795,77.593069,89.6923076923077
YERRAGUNTLA,YA,14.642328,78.534003,26.166666666666668
YESVANTPUR JN,YPR,13.022839,77.551174,30.823529411764707
ZAFARABAD JN,ZBD,25.708436,82.719014,117.25
ZAHIRABAD,ZB,17.674958,77.610213,84.0
ZAMANIA,ZNA,25.373856,83.54365,138.0
ZAWAR,ZW,24.358621,73.731959,10.75
