Station_Name,Station_Code,Lat,Long,Average_Delay
ABU ROAD,ABR,24.470775,72.775695,6.0
ADRA JN,ADRA,23.495992,86.674665,74.5
AGRA CANTT,AGC,27.157992,77.990153,17.666666666666668
AJMER JN,AII,26.456612,74.637464,7.0
ALLEPPEY,ALLP,9.483759,76.322476,46.5
ANARA,ANR,23.481082,86.559763,285.0
ANGUL,ANGL,20.859445,85.099994,270.5
ASANSOL JN,ASN,23.691441,86.975152,104.25
BALASORE,BLS,21.500521,86.919582,99.0
BALHARSHAH,BPQ,19.8490173,79.3485858,14.833333333333334
BALLIA,BUI,25.76057,84.15312,68.5
BANKURA,BQA,23.2243871,87.0746875,75.0
BARAUNI JN,BJU,25.461768,85.988748,60.5
BARDDHAMAN JN,BWN,23.249718,87.870281,8.0
BAREILLY,BE,28.3371543,79.4108444,55.5
BEGU SARAI,BGS,25.425296,86.134476,45.0
BHADRAKH,BHC,21.0917458,86.5162305,88.5
BHARUCH JN,BH,21.706907,72.997689,4.5
BHOPAL JN,BPL,23.2668843843,77.4131428577,16.4
BHUBANESWAR,BBS,20.265388,85.842595,130.33333333333334
BHUSAVAL JN,BSL,21.0472812,75.7886717,17.0
BILASPUR JN,BSP,22.057473,82.167585,10.5
BOKARO STL CITY,BKSC,23.656551,86.085016,81.25
BORIVALI,BVI,19.228739,72.856412,12.25
CHAKRADHARPUR,CKP,22.678979,85.627771,229.5
CHAPARMUKH JN,CPK,26.202272,92.511718,78.5
CHENNAI CENTRAL,MAS,13.0847613,80.2748563,2.0
CHHAPRA,CPR,25.78832,84.725004,56.5
CHOPAN,CPU,24.51403,83.025843,23.0
CUTTACK,CTC,20.466588,85.90156,147.16666666666666
DALTONGANJ,DTO,24.033075,84.074843,44.25
DANAPUR,DNR,25.581921,85.044629,83.0
DEHRI ON SONE,DOS,24.914895,84.185434,76.0
DELHI CANTT,DEC,28.613534,77.116577,8.0
DHANBAD JN,DHN,23.790966,86.428956,91.5
DHENKANAL,DNKL,20.676825,85.590878,263.5
DIBRUGARH,DBRG,27.4636065659,94.9352579102,39.6
DIMAPUR,DMV,25.905702,93.727816,73.25
DURG,DURG,21.200327,81.291837,13.5
DURGAPUR,DGR,23.495046,87.297902,103.0
ERNAKULAM JN,ERS,9.969542,76.290672,40.5
FALNA,FA,25.235808,73.234953,5.0
GARWA ROAD,GHD,24.214419,83.885116,33.75
GAYA JN,GAYA,24.803978,84.999294,114.91666666666667
GONDIA JN,G,21.462435,80.190842,31.5
GUNTAKAL JN,GTL,15.17556,77.366611,49.0
GURGAON,GGN,28.489165,77.010739,5.5
GUWAHATI,GHY,26.182635,91.751851,69.75
GWALIOR,GWL,26.216483,78.182292,22.375
H NIZAMUDDIN,NZM,28.58733,77.254249,3.1818181818181817
HAJIPUR JN,HJP,25.702909,85.2155,56.75
HIJILLI,HIJ,22.319921,87.320169,101.0
HOWRAH JN,HWH,22.584078,88.340999,59.0
ITARSI JN,ET,22.608258,77.767128,26.5
JAIPUR,JP,26.920203,75.786923,12.0
JAJPUR K ROAD,JJKR,20.943544,86.132518,91.5
JALGAON JN,JL,21.018115,75.562875,22.5
JAMMU TAWI,JAT,32.706975,74.880117,69.0
JASIDIH JN,JSME,24.514517,86.644255,12.0
JHARSUGUDA JN,JSG,21.862274,84.017427,248.0
KALYAN JN,KYN,19.234716,73.12974,13.5
KANNUR,CAN,11.8706942,75.3683267,49.5
KANPUR CENTRAL,CNB,26.45424,80.350966,66.86363636363636
KARWAR,KAWR,14.821387,74.183139,50.0
KASARAGOD,KGQ,12.491175,74.987652,55.0
KATHUA,KTHU,32.397897,75.551922,61.5
KATIHAR JN,KIR,25.548947,87.566409,50.0
KAZIPET JN,KZJ,17.974211,79.511025,29.0
KISHANGANJ,KNE,26.097746,87.949657,65.83333333333333
KODERMA,KQR,24.434741,85.529458,128.0
KOKRAJHAR,KOJ,26.405057,90.274125,63.166666666666664
KOLLAM JN,QLN,8.886586,76.596753,50.0
KOTA JN,KOTA,25.223553,75.8805,8.875
KOZHIKODE,CLT,11.246234,75.780407,48.0
KSR BANGALORE CY JN,SBC,12.977595,77.568083,21.5
KUDAL,KUDL,16.017651,73.67813,39.0
LOHARDAGA BS,LAD,23.445967,84.70733,32.0
LUCKNOW NR,LKO,26.830675,80.925291,55.0
LUDHIANA JN,LDH,30.912367,75.847873,59.5
LUMDING JN,LMG,25.750036,93.1766,67.25
MADGAON,MAO,15.267911,73.970724,27.666666666666668
MADHUPUR JN,MDP,24.270633,86.642183,12.5
MAHESANA JN,MSH,23.602623,72.388708,5.5
MANGALORE JN,MAJN,12.866193,74.88006,44.0
MANSI JN,MNE,25.509398,86.554446,79.0
MARIANI JN,MXN,26.652435,94.308203,59.0
MATHURA JN,MTJ,27.480145,77.673117,4.0
MORADABAD,MB,28.831621,78.765801,46.0
MORANHAT,MRHT,27.1829782,94.9193076,42.5
MUMBAI CENTRAL,MMCT,18.9697,72.8194,1.25
MURI,MURI,23.376284371,85.8669906885,77.0
MUZAFFARPUR JN,MFP,26.122311,85.378006,67.0
NAGDA JN,NAD,23.45592,75.412491,4.5
NAGPUR,NGP,21.153567,79.089004,22.75
NASIK ROAD,NK,19.947627,73.841897,20.0
NAUGACHIA,NNA,25.385261,87.09387,78.5
NEW ALIPURDAUR,NOQ,26.48572,89.541398,37.25
NEW BONGAIGAON,NBQ,26.4758354405,90.5368434644,51.833333333333336
NEW COOCH BEHAR,NCB,26.353159,89.469766,52.5
NEW DELHI,NDLS,28.642314,77.220004,41.73529411764706
NEW JALPAIGURI,NJP,26.683025,88.443391,58.166666666666664
NEW MISAMARI,NMM,26.810166,92.575454,30.5
NEW TINSUKIA JN,NTSK,27.479748,95.334128,81.0
NSC BOSE J GOMO,GMO,23.873106,86.14823,134.0
PALANPUR JN,PNU,24.174433,72.430172,1.5
PANVEL,PNVL,18.990919,73.121756,16.5
PARASNATH,PNME,23.987971,86.037862,98.5
PATHANKOT CANTT,PTKC,32.2593,75.636044,59.0
PATLIPUTRA,PPTA,25.621426,85.068505,77.5
PATNA JN,PNBE,25.60256,85.136824,33.75
PRAYAGRAJ JN,PRYJ,25.4453,81.8253,85.11111111111111
RAICHUR,RC,16.192441,77.339165,56.5
RAIPUR JN,R,21.256462,81.629328,24.0
RAJ NANDGAON,RJN,21.101186,81.039019,34.0
RANCHI,RNC,23.348811,85.33352,36.0
RANGAPARA NORTH,RPAN,26.8215934,92.682658,29.0
RANGIYA JN,RNY,26.447901,91.605929,57.5
RATLAM JN,RTM,23.34038,75.050826,6.625
RATNAGIRI,RN,17.002793,73.356938,32.25
RENUKUT,RNQ,24.203558,83.039896,49.5
RJNDR NGR BIHAR,RJPB,25.603351,85.162449,53.0
ROURKELA,ROU,22.22844,84.863132,235.0
SAI P NILAYAM,SSPN,14.160468,77.757559,50.0
SAMASTIPUR JN,SPJ,25.858304,85.78736,69.0
SAMBALPUR CITY,SBPY,21.4770222859,84.0076171613,263.0
SAWAI MADHOPUR,SWM,26.018279,76.35622,7.5
SEALDAH,SDAH,22.566758,88.374713,88.5
SECUNDERABAD JN,SC,17.433147,78.501481,26.666666666666668
SERAM,SEM,17.180683,77.28353,62.5
SHORANUR JN,SRR,10.758855,76.272196,40.5
SIMALUGURI JN,SLGR,26.917281,94.756816,44.0
SURAT,ST,21.206568,72.840793,7.0
TANGLA,TNL,26.658355,91.912274,38.0
TATANAGAR JN,TATA,22.768954,86.20056,96.0
THIVIM,THVM,15.62955,73.876104,34.0
THRISUR,TCR,10.51479,76.207919,41.0
TRIVANDRUM CNTL,TVC,8.486679,76.95121,28.0
UDALGURI,ULG,26.744291,92.094329,38.0
UDUPI,UD,13.336341,74.771733,53.5
V LAKSHMIBAI JHANSI,VGLJ,25.4439,78.5533,14.7
VADODARA JN,BRC,22.310756,73.181065,7.25
VALSAD,BL,20.6085595,72.9335291,7.5
VAPI,VAPI,20.374338,72.909127,11.0
VARANASI JN,BSB,25.327281,82.986468,65.0
VASAI ROAD,BSR,19.3824486,72.8322217,17.25
VIJAYAWADA JN,BZA,16.518262,80.618648,16.0
WARANGAL,WL,17.972477,79.604929,31.0
YADGIR,YG,16.744396,77.130366,54.5
