Station_Name,Station_Code,Lat,Long,Average_Delay
ABHAIPUR,AHA,25.2159864584,86.3230724591,23.5
ABHAYAPURI ASAM,AYU,26.356599,90.641696,35.75
ABJUGANJ,AJUG,25.242369,86.775451,24.875
ABOHAR,ABS,30.1393834225,74.1956861774,19.714285714285715
ABU ROAD,ABR,24.470775,72.775695,3.0
ABUTARA H,ABW,26.0707762,89.5868746,18.25
ACHALDA,ULD,26.701949,79.404392,41.55555555555556
ACHALGANJ,ACH,26.444642,80.545415,36.75
ACHARAPAKKAM,ACK,12.406776,79.821722,11.0
ACHEGAON,ACG,20.976217,75.934247,22.0
ACHHNERA JN,AH,27.1817602284,77.7578389026,49.61538461538461
ACHUARA H,ACU,25.45273,85.661087,33.2
ADAPUR,ADX,26.924721,84.941759,73.875
ADARI ROAD,ADE,20.986795,70.330818,22.5
ADARSH MANPUR,AHMP,25.1344757598,85.9110626782,29.5
ADAS ROAD,ADD,22.4866280782,73.0346944543,6.2
ADDERI,AEX,14.141045,75.157978,4.5
ADHARTAL,ADTL,23.227389,79.972274,60.5
ADHICHCHANUR,ACN,12.05415,79.182478,5.666666666666667
ADHIKARI,ADQ,26.57689211,88.16988226,51.666666666666664
ADHINPUR,AHZ,26.418478,81.726848,155.5
ADHYATMIK NAGAR H,AKNR,28.679874,77.499727,30.25
ADI SAPTAGRAM,ADST,22.95447,88.378872,19.0
ADIHALLI,ADHL,13.2834201678,76.3472840454,4.5
ADILABAD,ADB,19.680104,78.535285,9.333333333333334
ADINA,ADF,25.114397,88.12318,27.5
ADITYAPUR,ADTP,22.782212,86.158954,26.833333333333332
ADIYAKKAMUNGALAM,AYM,10.756748,79.68058,14.875
ADONI,AD,15.617035,77.27485,27.0
ADRA JN,ADRA,23.495992,86.674665,22.48780487804878
ADRSH NGR DELHI,ANDI,28.714205,77.166707,39.22222222222222
ADUTURAI,ADT,11.009165,79.478668,16.166666666666668
AGARAM SIBBANDI,AGM,12.414388,79.113347,11.666666666666666
AGARPARA,AGP,22.682505,88.384761,9.0
AGARTALA,AGTL,23.792417,91.278481,4.666666666666667
AGASOD,AGD,24.234023,78.216912,58.0
AGAUTHAR H,AGTR,26.0081455466,84.8437572205,16.166666666666668
AGHWANPUR,AWP,28.939542,78.702865,34.5
AGOMONI,AGMN,26.225947,89.786242,68.5
AGORI KHAS,AGY,24.59896,83.056105,47.0
AGRA CANTT,AGC,27.157992,77.990153,70.125
AGRA CITY,AGA,27.1945731,78.0157752,48.25
AGRA FORT,AF,27.183308,78.0191,16.875
AGRADWIP,AGAE,23.58096,88.226117,16.0
AGSAULI,AUL,27.705677,78.444553,27.375
AGTHORI,AGT,26.20089324,91.686006,11.5
AHALYAPUR,AHLR,26.468381,83.824844,83.16666666666667
AHERA,AHQ,28.926421,77.278624,29.72222222222222
AHIMANPUR,AHM,25.252404,82.511544,139.0
AHIRAN,AHN,24.517687,88.041125,29.416666666666668
AHIRAULI H,AHU,27.30686,83.034225,80.75
AHJU,AHJU,32.02843,76.690156,5.2
AHMADGARH,AHH,30.683642,75.829518,23.5
AHMADNAGAR,ANG,19.0755194777,74.721882467,4.0
AHMADPUR JN,AMP,23.8325090573,87.6928410938,32.0625
AHMEDABAD JN,ADI,23.025515,72.601516,3.2
AILAM H,AILM,29.2719947091,77.2915349414,32.0625
AIT,AIT,25.903719,79.230436,28.666666666666668
AITHAL,ATMO,29.8079295893,78.0436230264,34.75
AIYANAPURAM,AYN,10.788547,78.929033,8.066666666666666
AJAIBPUR,AJR,28.4728347205,77.5937373035,32.05882352941177
AJAKOLLU,AJK,16.3467833327,77.8736361627,62.0
AJANTI,ANI,21.893954,76.285956,0.0
AJARAKA,AIA,27.959391,76.564209,11.5
AJGAIN,AJ,26.61721,80.620988,70.0
AJHAI,AJH,27.63615,77.558423,65.16666666666667
AJHARAIL,AHL,25.781638,87.848322,46.833333333333336
AJIT,AJIT,25.86007697,72.67795462,23.666666666666668
AJIT GILL MATTA H,AJTM,30.483469,74.863795,11.428571428571429
AJITWAL,AJL,30.807611,75.339818,17.9
AJJAMPUR,AJP,13.7283327,76.0097415,36.5
AJMER JN,AII,26.456612,74.637464,2.0
AJNI,AJNI,21.1268588122,79.0825197485,60.5
AJNOD,AJN,22.931326,75.738947,15.083333333333334
AKALKOT ROAD,AKOR,17.450243,76.137689,81.33333333333333
AKALTARA,AKT,22.029121,82.422049,44.76470588235294
AKANAPET,AKE,18.110863,78.396309,54.214285714285715
AKASHI P H,AKZ,23.3851244008,84.8877858557,5.571428571428571
AKATHUMURI,AMY,8.70031,76.758792,7.6
AKBARGANJ,AKJ,26.531456,81.501628,154.0
AKBARNAGAR,AKN,25.2348807669,86.8345333624,32.0
AKELA HANSPUR H,ALNP,28.34054,80.315571,4.142857142857143
AKIVIDU,AKVD,16.582654,81.369055,19.75
AKKAMPET,AKAT,13.6491060718,80.0188634064,16.666666666666668
AKKIHEBBALU,AKK,12.62489,76.377598,24.0
AKODIA,AKD,23.378255,76.599245,16.0
AKOLA JN,AK,20.723084,77.005497,24.333333333333332
AKORA,AKW,25.613687,80.139995,75.5
AKOT,AKOT,21.095661,77.047217,0.0
AKSHAYWAT R NGR,AYRN,25.688767621,85.3154110229,39.3
ALAKKUDI,ALK,10.77766297,79.0537095,9.466666666666667
ALAL,ALAL,30.378176,75.724207,18.25
ALAMANDA,ALM,18.01251,83.271604,46.833333333333336
ALAMNAGAR,AMG,26.84708,80.860312,0.0
ALAMPUR,ALMR,21.944013,71.699156,16.9
ALAMPUR ROAD,ALPR,15.895657,78.047012,115.5
ALANDI,ALN,18.451229,74.093095,27.0
ALAPAKAM,ALP,11.6178033436,79.7272273724,19.166666666666668
ALAWAL PUR,AWL,31.425164,75.642236,35.666666666666664
ALAWALPUR IDRISPUR,AIH,29.0477960432,77.2716388989,33.05882352941177
ALEHPUR HALT,APRH,26.2094647257,84.7889855798,18.75
ALER,ALER,17.6459553,79.0483414,58.8
ALEWAHI,AWH,20.38793,79.710147,84.875
ALGAPUR,ALGP,24.754753,92.595918,11.5
ALGAWAN,AIG,27.700598,79.963236,0.0
ALIA BADA,ALB,22.44677,70.210367,49.0
ALIGANJ,ALJ,29.143806,78.932709,26.1
ALIGARH JN,ALJN,27.889584,78.074559,40.23809523809524
ALIPUR DUAR,APD,26.479307,89.520667,43.25
ALIPUR DUAR COURT,APDC,26.499255,89.526808,21.5
ALIPUR DUAR JN,APDJ,26.523279,89.534048,44.25
ALLEPPEY,ALLP,9.483759,76.322476,8.0
ALMATTI,LMT,16.3459,75.9005,58.166666666666664
ALMAW H,ALMW,25.259915,82.489941,139.0
ALNIYA,ALNI,25.0316757156,75.9087458728,12.6
ALUABARI ROAD,AUB,26.269681,88.18561,55.125
ALUVA,AWY,10.108163,76.356508,12.375
ALWAL,ALW,17.505779,78.515006,52.666666666666664
ALWAR,AWR,27.559273,76.621265,20.0
ALWAR TIRUNAGRI,AWT,8.602296,77.941809,6.7
AMAGURA,AGZ,19.068103,82.147342,33.0
AMALNER,AN,21.049009,75.057314,12.5
AMALPUR,AMLP,22.161144,73.508313,6.8
AMALSAD,AML,20.811373,72.956092,17.285714285714285
AMAN VADI,AMW,20.300507,77.065281,42.25
AMAR SAHEED J P H,ASJP,25.560087,84.409699,15.5
AMARAVATHI COLONY JN,AVC,14.498219,75.854093,11.25
AMARAVIIA,AMVA,8.397109,77.100362,16.11111111111111
AMARDA ROAD,ARD,21.734258,87.102374,198.0
AMARGARH,AGR,23.080689,74.747038,17.25
AMARPURA,APA,26.110973,74.249302,6.5
AMARPURA RATHAN,AMPR,29.483399,74.078953,20.25
AMAUSI,AMS,26.77443,80.841544,68.3
AMBAGAON,AGB,19.062527,82.239507,33.5
AMBALA CANT JN,UMB,30.338918,76.826966,16.27027027027027
AMBALA CITY,UBC,30.378497,76.763996,19.41176470588235
AMBALAPUZHA,AMPA,9.386059,76.363817,13.428571428571429
AMBALE,ABLE,18.398719,74.171511,29.0
AMBANDAURA,AADR,31.670727,76.110391,4.5
AMBAPENDARPUR H,APP,25.2669627882,85.5297094055,76.66666666666667
AMBARI,ABX,19.6893606972,78.2166847791,29.0
AMBARI FALAKATA,ABFC,26.641553,88.510593,14.0
AMBASA,ABSA,23.930507,91.860783,24.5
AMBATTUR,ABU,13.1143059808,80.1525249074,10.176470588235293
AMBATURAI,ABI,10.272226,77.924468,6.5
AMBIAPUR,AAP,26.515364,79.826878,41.5
AMBIKA BHAWANI HALT,AABH,25.751433665,84.9690033484,24.0
AMBIKA KALNA,ABKA,23.211377,88.353984,21.0
AMBIKAPUR,ABKP,23.137032,83.145109,15.333333333333334
AMBIKESHWAR,ABE,26.368567,77.963828,17.0
AMBLI ROAD,ABD,23.05437,72.494044,14.5
AMBLIYASAN,UMN,23.447386,72.423181,11.625
AMBODALA,AMB,19.8363234649,83.4563524799,70.0
AMBUR,AB,12.782934,78.721266,0.0
AMDARA,UDR,24.0995008758,80.5779045111,37.5
AMDI,AMDI,21.35241,79.318756,180.25
AMETHI,AME,26.153024,81.806276,159.0
AMGAON,AGN,21.3612928554,80.3746491022,72.0
AMGURI,AGI,26.812601,94.524011,36.25
AMHERA H,ARH,29.26223824,78.28580221,11.0
AMIN,AMIN,29.904968,76.900028,46.875
AMJONGA,AMGA,25.9816211386,90.8529670435,22.5
AMLA JN,AMLA,21.919717,78.123187,42.25
AMLAI,AAL,23.173469,81.593507,41.2
AMLI,AMLI,25.828156,76.286156,24.0
AMLO,AMLO,23.768893,85.980234,71.16666666666667
AMLORI SARSAR,ALS,26.2947140024,84.3455775659,25.285714285714285
AMMANABROLU,ANB,15.596402,80.148353,71.66666666666667
AMMAPALI,AMPL,25.2724414889,87.4585745682,30.5
AMMAPET,AMT,10.779506,79.315738,12.3
AMMASANDRA,AMSA,13.264571,76.7114857,18.333333333333332
AMMUGUDA,AMQ,17.487039,78.527215,51.333333333333336
AMNAPUR,ANQ,17.049465,74.459554,18.0
AMOLWA,AMO,27.211161,84.478487,3.5
AMONI,AONI,26.448121,92.919609,21.0
AMRAVATI,AMI,20.9300829,77.7577863,11.0
AMRELI,AE,21.607831,71.228012,0.0
AMRELI PARA,AEP,21.6079811042,71.2281676154,0.16666666666666666
AMRITSAR JN,ASR,31.631512,74.858025,19.607142857142858
AMRITVEL,AVL,21.077372,71.679671,4.5
AMROHA,AMRO,28.892688,78.474329,36.5
ANAKAPALLE,AKP,17.695503,83.008851,0.0
ANAND JN,ANND,22.561307,72.965733,2.533333333333333
ANAND NAGAR,ANDN,27.103714,83.270698,110.4375
ANAND VIHAR,ANVR,28.6486144,77.3140236,15.4
ANANDAPURAM,ANF,14.073324,75.209164,10.5
ANANDPUR SAHIB,ANSB,31.2305136,76.5006035,24.25
ANANDTANDAVPUR,ANP,11.143966349,79.6576745148,18.333333333333332
ANANGUR,ANU,11.39694,77.820053,32.333333333333336
ANANTAPUR,ATP,14.686478,77.595312,6.833333333333333
ANANTARAJUPET,ANE,13.999592,79.302468,13.0
ANANTNAG,ANT,33.7385342444998,75.1071310881525,13.571428571428571
ANAPARTI,APT,16.935817,81.953181,0.0
ANARA,ANR,23.481082,86.559763,38.5625
ANAS,ANAS,22.866009,74.421513,8.0
ANAVARDIKHANPET,AVN,13.05050406,79.56735043,9.25
ANCHELI,ACL,20.845167,72.944978,17.714285714285715
ANCHURI P H,ANCR,23.283904,86.993174,16.083333333333332
ANDAL JN,UDL,23.579012,87.181194,16.575
ANDAMPALLAM,AND,12.08842638,79.16898527,5.666666666666667
ANDANAPETTAI,APE,10.758823,79.844096,16.75
ANDUL,ADL,22.575169,88.239643,85.33333333333333
ANEKAL ROAD,AEK,12.723885,77.710727,22.25
ANGADGERI H,ANGR,16.45187366,75.84589116,48.5
ANGADI,AGCI,22.806751,73.282558,7.1
ANGADIPPURAM,AAM,10.979489,76.207343,5.1
ANGAMALI,AFK,10.183676,76.37786,12.25
ANGAR GHAT,ARG,25.795385,85.907174,62.0
ANGUA P H,AGV,21.892582,87.269923,198.5
ANGUL,ANGL,20.859445,85.099994,47.0
ANIPUR,APU,24.545736,92.434527,3.5
ANJANI,ANO,17.620605,73.399308,49.0
ANJAR,AJE,23.1194723,70.0366109,13.5
ANJHI SHAHABAD,AJI,27.643994,79.973314,0.0
ANKLESHWAR JN,AKV,21.623889,73.000633,13.11111111111111
ANKOLA,ANKL,14.645347,74.332936,49.0
ANKORAH AKORHA,ANH,24.761167,84.169539,84.625
ANKUSPUR,AKS,25.5713190547,83.4940121521,90.35714285714286
ANNANUR,ANNR,13.116018,80.126743,9.428571428571429
ANNAVARAM,ANV,17.269633,82.419677,0.0
ANNECHAKANAHALLI H,ANC,12.7379,76.282814,20.25
ANNIGERI,NGR,15.432164,75.430851,24.642857142857142
ANTAH,ATH,25.1611771,76.3072684,17.0
ANUGRAHA N ROAD,AUBR,24.8559556,84.3298444,92.22222222222223
ANUPGANJ,APG,26.757292,81.126093,152.5
ANUPGARH,APH,29.1968977,73.2045643,1.0
ANUPPAMBATTU,APB,13.304293,80.230769,15.166666666666666
ANUPPUR JN,APR,23.117312,81.695967,32.38461538461539
ANUPSHAHR,AUS,28.9479511135174,75.2112297993153,12.375
AONLA,AO,28.296051,79.16915,22.5
APPIKATLA,APL,15.970371,80.514466,89.33333333333333
APTA,APTA,18.863471,73.152629,19.357142857142858
APURVA PH,APRD,21.727401,87.638201,14.25
ARA,ARA,25.548889,84.662596,40.18518518518518
ARAG,ARAG,16.823628,74.791164,37.0
ARAKKONAM,AJJ,13.081512,79.667991,10.454545454545455
ARAKU,ARK,18.333991,82.86256,33.0
ARALAGUPPE H,ARGP,13.253132,76.615439,3.25
ARALVAYMOZHI,AAY,8.2494513612,77.5292646945,6.5
ARAMBAKAM,AKM,13.532686,80.074371,19.5
ARAND,ARN,21.102097,82.183013,58.5
ARANG MAHANADI,ANMD,21.189614,81.955513,17.25
ARANTANGI,ATQ,10.1644690569637,78.9968481380492,7.5
ARAON,AON,27.114343,78.692248,5.75
ARARIYA,ARR,26.1371182668,87.4119980969,29.333333333333332
ARARIYA COURT,ARQ,26.114921,87.446912,26.833333333333332
ARASALU H,ARU,13.999309,75.314466,9.0
ARAUL MAKANPUR,ARL,26.920662,80.018633,32.375
ARAVALI ROAD,AVRD,17.316531,73.53816,49.0
ARAVALLI,AVLI,16.620491,81.599095,20.3
ARAVANKADU,AVK,11.359124,76.769203,2.125
AREPALLI H,ARPL,16.270534,77.862369,60.0
ARGORA P H,AOR,23.347039,85.314358,2.7142857142857144
ARGUL PH,ARGL,20.12442672,85.67088007,28.0
ARIGADA,ARGD,23.643461,85.466475,58.4
ARIYALUR,ALU,11.150035,79.068318,18.75
ARJANSAR,AS,28.933796,73.871969,49.0
ARJUNAHALLI H,ARNH,12.512857,76.391729,22.25
ARJUNI,AJU,20.8165878335,80.022581618,80.5
ARKHA H,ARKA,25.867316,81.331277,90.0
ARNEJ,AEJ,22.582088,72.268322,4.5
ARNETHA,ARE,25.3897784806,76.0186741699,21.0
ARNI ROAD,ARV,12.630801,79.209033,10.6
ARNIA,ARNA,27.0101287751,76.5171796234,26.25
AROOR,AROR,9.8791031,76.302833,12.0
ARSENI,ASI,27.243104,80.39386,0.0
ARSIKERE JN,ASK,13.314425,76.2520848,11.333333333333334
ARTS COLLEGE,ATC,17.41813,78.519665,29.416666666666668
ARUMUGANERI,ANY,8.579144,78.091842,9.9
ARUN NAGAR H,ARNG,20.7084913199,79.9789721362,78.75
ARUNACHAL,ARCL,24.855593,92.742995,5.5
ARUPPUKKOTTAI,APK,9.524631681,78.10189147,29.5
ASAFPUR,AFR,28.405553,78.905957,24.25
ASALPUR JOBNER,JOB,26.900084,75.423467,9.0
ASAN,ASAN,29.40129,76.882594,21.5
ASANBONI,ASB,22.712394,86.313908,7.090909090909091
ASANSOL JN,ASN,23.691441,86.975152,25.828125
ASAOTI,AST,28.250878,77.323569,42.09090909090909
ASARVA JN,ASV,23.043981,72.612937,4.5
ASAUDAH,ASE,28.73653776,76.85877285,35.0
ASHAPURA GOMAT,AQG,26.950232,71.892665,23.0
ASHOK NAGAR,ASKN,24.58015,77.726725,101.0
ASHOKAPURAM,AP,12.273762,76.635315,6.0
ASIFABAD ROAD,ASAF,19.256682,79.416719,78.0
ASLANA,ANA,23.860522,79.319493,73.75
ASLAODA,ASL,23.231264309,75.6081601563,9.375
ASLU,ASLU,28.368988,75.074842,29.25
ASNOTI,AT,14.876286,74.147683,21.0
ASOKHAR,AXK,26.525539,78.555854,11.833333333333334
ASRA HALT,ASAR,29.2497607742,77.29144328,33.666666666666664
ASRANADA,AAS,26.397374,73.305325,20.5
ASTHAL BOHAR JN,ABO,28.857765,76.629155,30.35
ASWANI HALT,AWS,27.15958,84.051843,100.0
ATA,ATA,26.0445422657,79.5991430011,67.75
ATAMANDA,AMA,28.58606,79.468143,33.9
ATARI,ATT,31.594934,74.607241,15.75
ATARIA,AA,27.172457,80.861033,20.166666666666668
ATARRA,ATE,25.291367,80.576491,85.0
ATHMAL GOLA,ATL,25.4530149778,85.6213724115,49.25
ATHSARAI,ASCE,25.678728805,81.2620300824,150.0
ATIRAMPATTINAM,AMM,10.3322852289764,79.3858075886965,5.75
ATRAMPUR,ARP,25.572021,81.745663,87.0
ATRAULI ROAD,AUR,28.0971879576,78.2201080066,28.5
ATRAURA H,ATRR,25.316112,82.314016,144.25
ATRU,ATRU,24.8821354,76.6702185,18.5
ATTABIRA,ATS,21.388039,83.792637,60.25
ATTAR,ATR,21.998734,76.204918,0.5
ATTILI,AL,16.68015,81.61636,17.833333333333332
ATTIPATTU PUDU NGR H,AIPP,13.249326,80.299606,17.0
ATTIPPATTU,AIP,13.2611631708,80.2889459058,18.166666666666668
ATTUR,ATU,11.594788,78.592092,9.75
ATUL,ATUL,20.544593354,72.9271335858,8.666666666666666
ATWA KURSATH,ATKS,27.1345702672,80.2672099268,0.0
ATWA MUTHIA H,ATW,27.27399,80.415479,0.0
AUJURI,AJRE,26.1446457224,92.266800144,25.75
AULENDA,AED,27.029152,77.612583,10.25
AUNG,AUNG,26.16423,80.544495,100.25
AUNGARIDHAM H,ANGM,25.1913324416,85.2261571069,23.833333333333332
AUNLAJORI JN,OND,22.440956,86.1642075,4.5
AUNRIHAR JN,ARJ,25.54466,83.187272,84.63636363636364
AURAHI F,AUI,25.823021,87.135054,9.25
AURANG NAGAR,AUN,29.043935,75.974542,8.5
AURANGABAD,AWB,19.859276,75.310646,42.0
AUVANESWSAREM,AVS,9.036513,76.852807,12.333333333333334
AVADI,AVD,13.118247,80.100518,10.5
AVATIHALLI H,AVT,13.299092,77.726679,5.0
AWA GARH,AWG,27.464247,78.4734,21.0
AWAPUR F,AWPR,26.508916,85.652916,60.1
AWATARNAGAR,ATNR,25.764396,84.956774,43.875
AYANDUR,AYD,11.966732,79.34081,6.0
AYODHYA DHAM JN,AY,26.787784,82.200604,80.125
AYODHYAPATTANAM,APN,11.671392,78.233642,5.75
AYYALUR,AYR,10.483391,78.157049,17.5
AYYAMPET,AZP,10.896267,79.206701,9.5
AZAMGARH,AMH,26.038607,83.160614,26.166666666666668
AZAMNAGAR ROAD,AZR,25.5555556424,87.8523278357,34.0
AZARA,AZA,26.09934,91.613927,15.0
AZIMGANJ CITY,ACLE,24.237941,88.258871,19.576923076923077
AZIMGANJ JN,AZ,24.219053,88.256764,15.978260869565217
B CEMENT NAGAR,BEY,15.48632233,78.19541209,25.5
B E M L NAGAR H,BEML,12.9786413,78.24197815,8.5
BAAD,BAD,27.3959406,77.68965184,64.0
BABA BAKALA RAIYA,BBKR,31.541835,75.238827,43.0
BABA LAKSHMAN DAS H,BBLK,27.3169993559,79.3635186078,4.75
BABA RAGHUNI HALT DWARIKA,BRHD,25.7600467439,86.5967982178,28.571428571428573
BABARPUR,BBDE,29.449652,76.966178,46.5
BABATPUR,BTP,25.453616,82.8800248,109.0
BABHABGAON H,BAHN,25.4483399037,87.8098941528,34.0
BABHANJYOTIYA H,BNGY,26.9662637829,82.4273550012,79.0
BABHNAN,BV,26.938525,82.500127,90.83333333333333
BABINA,BAB,25.237832,78.451748,57.75
BABLAD,BBD,17.337569,76.779259,78.0
BABRALA,BBA,28.2664932,78.4034137,38.166666666666664
BABUGARH,BBO,28.747393,77.855523,46.75
BABUPETH,BUPH,19.923131,79.313027,53.5
BABUPUR H,BBPR,27.349971,81.070314,37.25
BACHELI,BCHL,18.703461,81.238534,67.5
BACHHARPUR HALT,BCPR,26.4946286292,85.6625286658,59.9
BACHHRAWAN,BCN,26.4773211,81.1054565,166.0
BACHWARA JN,BCA,25.5812576,85.9001424,68.16666666666667
BADABANDHA,BDBA,20.276721,86.519951,36.333333333333336
BADAKHANDIAITA,BDKT,20.3654487,86.08383554,33.0
BADALPUR P H,BDPA,21.710487,87.616227,14.875
BADAMI,BDM,15.958918,75.6767002,57.166666666666664
BADAMPAHAR,BMPR,22.2640234,86.1808182,3.4
BADANAGUPPE H,BDGP,11.990316,76.861228,5.3
BADAPADAGAON PH,BDPG,20.57058831,85.87382799,43.5
BADARPUR JN,BPB,24.8651775,92.5563227,14.7
BADARWAS,BDWS,24.98333982,77.56182792,30.5
BADAUSA,BUS,25.248423,80.651011,82.5
BADDOWAL,BWZ,30.862117,75.742678,17.8
BADE ARAPUR,BDXX,19.011494,81.837917,34.5
BADHADA,BDHA,21.2703,71.337414,32.0
BADHAI BALAMGARH H,BDBG,30.459894,74.460168,22.714285714285715
BADHARI KALAN,BHK,27.799053,78.734589,14.5
BADHWA BARA,BDWA,23.2939334,81.28636818,56.666666666666664
BADKULLA,BDZ,23.3046657,88.526557,15.785714285714286
BADLA GHAT,BHB,25.5537629,86.5871439,49.0
BADLI,BHD,28.7468,77.1377425,39.611111111111114
BADMAL,BUDM,20.3849,83.271149,56.75
BADNAPUR,BDU,19.873979,75.722483,48.166666666666664
BADNERA JN,BD,20.8567925,77.7323197,13.785714285714286
BADODAR,BDDR,21.361073,70.295846,6.833333333333333
BADSHAHPUR,BSE,25.652268,82.190552,39.25
BAGADIA PH,BGDI,20.279033,86.586249,30.5
BAGAHA,BUG,27.130045,84.066991,99.625
BAGAHA BISHNUPUR,BCJ,24.811468,84.204658,82.75
BAGALIA,BGA,23.44693617,86.51904643,37.125
BAGALKOT,BGK,16.1787931,75.7002383,55.333333333333336
BAGARPUR H,BGRR,29.079066,78.278043,10.0
BAGBAHRA,BGBR,21.0462946,82.3841486,65.33333333333333
BAGDIHI,BEH,21.951046,84.18631,0.0
BAGESHAPURA,BGPA,13.1438034416,76.2293551874,18.25
BAGEVADI RD,BSRX,16.47986853,75.82814753,44.5
BAGEWADI,BGWD,16.30777084,74.75360003,6.5
BAGHAULI,BGH,27.228081,80.296314,0.0
BAGHDOGRA,BORA,26.69777044,88.32445458,43.75
BAGHI BARDIHA,BBE,24.953077,85.623332,47.5
BAGHI GHAUSPUR,BFX,25.051952,85.684033,48.166666666666664
BAGHMARA H,BHMA,25.3655236284,87.6174634106,12.0
BAGHNAPARA,BGRA,23.242082,88.329724,13.0
BAGHOIKUSA,BHKH,24.8399006513,84.4624331329,47.0
BAGHORA,BJQ,24.1358767,78.2603362,62.5
BAGHPAT ROAD,BPM,28.957503,77.272589,33.8
BAGHUAPAL,BGPL,21.042219,86.013166,42.5
BAGILA,BGF,23.16014581,88.12200441,8.0
BAGNAN,BZN,22.462515,87.970711,59.333333333333336
BAGRA TAWA,BGTA,22.6307113,77.9937073,58.0
BAGRAKOT,BRQ,26.87063169,88.58596154,50.75
BAGRI NAGAR,BQN,25.895725,73.787801,8.5
BAGRIGRAM HALT,BIGH,25.391339123,86.9852379138,35.666666666666664
BAGUMRA,BGMR,21.149694,72.996091,12.0
BAGWADA H,BAGD,20.43948,72.916866,4.0
BAGWALI,BWB,30.033152,74.772519,21.5
BAHADUR SINGH W,BSS,30.319025,75.858906,19.428571428571427
BAHADURGARH,BGZ,28.700863,76.930886,34.75
BAHADURPUR,BPD,23.4385195,88.4633792,14.736842105263158
BAHADURPUR UP,BHDH,27.9522550839,79.7825431824,0.0
BAHAI H,BYQ,26.122334,81.01528,27.125
BAHANAGA BAZAR,BNBR,21.33613403,86.76172839,123.125
BAHAWAL BASI,BFE,30.147265,74.279311,14.142857142857142
BAHELIA BUZURG H,BFV,28.046924,80.512537,24.714285714285715
BAHERI,BHI,28.777391,79.5003221,87.16666666666667
BAHERWA H,BRWH,25.2518774982,82.7922887817,148.375
BAHILPURWA,BIP,25.137088,80.998599,83.75
BAHJOI,BJ,28.4014996,78.6315064,45.833333333333336
BAHMAN DIWANA,BWX,30.225526,74.849153,8.571428571428571
BAHMNIWALA,BVW,30.54894,74.193132,14.4
BAHORA CHANDIL,BHCL,25.364918,83.489726,52.8
BAHRAICH,BRK,27.581536,81.6075183,0.6666666666666666
BAHRAM,BHM,31.197575,75.894193,11.5
BAIDYABATI,BBAE,22.79549199,88.33203765,42.0
BAIDYANATHDHAM,BDME,24.4892623,86.6920701,0.0
BAIGUDA,BGUA,18.82704371,82.96578736,49.5
BAIHATA,BIZ,26.343713,91.684343,20.5
BAIHATOLA,BATL,23.231204,82.05862,24.1
BAIJNATHPAPROLA,BJPL,32.050369,76.632508,1.5555555555555556
BAIJNATHPUR,BYP,25.901014,86.653766,60.666666666666664
BAIKUNTH,BKTH,21.4976724,81.7800294,32.583333333333336
BAIKUNTHPUR RD,BRH,23.317286,82.5298836,28.25
BAINCHI,BOI,23.1191243,88.196286,37.0
BAINCHIGRAM,BCGM,23.10588031,88.21629817,11.0
BAIRAGNIA,BGU,26.738282,85.273334,66.1
BAISWARA,BSWA,26.284843,80.834712,34.5
BAITALPUR,BALR,26.5526634,83.7385572,91.16666666666667
BAITARANI ROAD,BTV,20.986996,86.235393,52.2
BAIYYAPPANAHALI,BYPL,12.990198,77.650886,20.303030303030305
BAJAKARE H,BAJE,12.720476,75.508955,3.5
BAJALTA,BLA,32.762368,74.953339,0.0
BAJEKAN,BJKN,29.524298,75.099097,11.0
BAJPATTI,BJT,26.546976,85.620613,65.1
BAJRANGARH,BJG,23.042607,74.694993,15.25
BAJUD,BJUD,21.736131,71.827925,13.25
BAJVA,BJW,22.3662226,73.1431251,6.8
BAKAINA H,BKNA,29.0358,78.274731,9.666666666666666
BAKAL,BAKL,21.123637,80.940946,32.142857142857146
BAKANIAN BHAUNR,BQE,23.261737,77.252499,3.0
BAKARKUDI,BKKI,23.095049,85.970936,41.75
BAKASPUR,BKPR,22.9810196446,84.9537296552,65.5
BAKAYANWALA,BKWA,30.143292,73.985818,11.75
BAKHLETA,BQQ,23.846381,79.96972,63.0
BAKHOTI KHAS H,BKTS,26.87806,80.037767,19.75
BAKHRABAD,VKD,22.118541,87.36345,154.375
BAKHRI,BKHR,25.4998407393,87.3353004456,44.875
BAKHSHA,BKSA,25.78236,82.57318,45.5
BAKHTIYARPUR JN,BKP,25.45611,85.529564,42.0
BAKKAS,BKKS,26.776082,81.051489,151.0
BAKRA ROAD,BK,25.2130523,72.487603,17.5
BAKROL,BKRL,22.5881026822,73.4192042773,9.166666666666666
BAKSHI KA TALAB,BKT,26.983452,80.922331,18.5
BAKTAL,BKTL,23.234083,77.038514,19.5
BAKUDI,BKLE,24.9345107267,87.7749068933,24.6875
BAKULHA,BKLA,25.797877,84.543411,33.0
BALAGARH,BGAE,23.1215453,88.4525522,22.0
BALAGHAT JN,BTC,21.8116285,80.1998853,47.9
BALAHAPUR H,BLHR,25.1202705418,86.1478153784,12.0
BALAMU JN,BLM,27.167363,80.352497,0.0
BALANAGAR,BABR,16.947622,78.188891,62.875
BALANGIR,BLGR,20.688591,83.494207,39.42857142857143
BALANGIR ROAD,BNRD,20.715094,83.498557,62.5
BALAPALLE,BLPE,13.817151,79.403557,16.5
BALARAMAPURAM,BRAM,8.430107451,77.05132088,17.181818181818183
BALASIRING,BLRG,23.2691273563,85.2812029169,50.0
BALASORE,BLS,21.500521,86.919582,136.77777777777777
BALAUDA TAKUN,BLDK,22.877384,75.755456,13.75
BALAWALI,BLW,29.6274345,78.1124328,38.0
BALGANUR,BLR,15.59262851,75.60251865,54.166666666666664
BALHARSHAH,BPQ,19.8490173,79.3485858,58.5
BALIAKHERI,BAE,29.9285,77.63368,28.75
BALICHAK,BCK,22.35818589,87.55335416,56.5
BALIKOTIA,BKS,26.46830942,92.57044308,14.0
BALIMARA,BTZ,27.236868,95.333576,24.0
BALLABGARH,BVH,28.3408609239,77.312775968,41.63636363636363
BALLE DA PIR LARATH,BLDL,32.215731,75.932732,8.714285714285714
BALLENAHALLI,BAHI,14.250321,76.566376,30.0
BALLI,BLLI,15.1517258,74.0209756,18.75
BALLIA,BUI,25.76057,84.15312,62.0
BALLUPUR F,BAPR,27.5865985855,79.1451478125,12.833333333333334
BALLY,BLY,22.6552655812,88.3406065536,48.75
BALOD,BXA,20.740984,81.205261,42.0
BALOTRA JN,BLT,25.830071,72.248683,11.75
BALPUR HALT,BPRH,22.115136,82.694138,24.22222222222222
BALRAI,BBL,26.9205023929,78.8237102228,52.125
BALRAMPUR,BLP,27.4158206073,82.1606698987,83.0
BALSAMAND,BLSD,27.581307,74.473873,14.5
BALUGAN,BALU,19.747366,85.200953,45.25
BALURGHAT,BLGT,25.232648,88.757636,7.0
BALWANTPURA CHELASI,BWPL,27.9104715,75.4432869,10.5
BALWARA,BAWA,25.5031445488,72.5545000909,22.0
BAMANGRAM,BMGR,25.6221398658,88.1912832245,21.0
BAMANHAT,BXT,26.0762844598792,89.6279775258154,18.333333333333332
BAMANHERI,BMHR,29.514762,77.70639,69.8
BAMANWALI,BMNL,28.361736,73.555273,29.0
BAMHNI BANJUR,BIV,22.438916,80.324566,13.166666666666666
BAMHRAULI,BMU,25.44494,81.741641,160.0
BAMIANA,BMY,28.26312382,79.3291058,43.57142857142857
BAMLA,BMLL,28.832464,76.244079,20.571428571428573
BAMNIA,BMI,23.0957635,74.7590158,18.25
BAMOUR GAON,BMZ,26.3484669242,78.0778607251,23.2
BAMRA,BMB,22.051355,84.291044,0.0
BAMSIN,BMSN,25.7629825521,72.5442353925,20.5
BAMUNIGAON,BMGN,26.01201,91.282876,24.0
BANA SHANKARI H,BNK,13.2656079329,76.5230602795,6.25
BANABIHARI GWALIPUR PH,BNHR,20.33902661,86.20503345,30.333333333333332
BANAHI,BYN,25.561301,84.389916,68.0
BANAR,BNO,26.33951,73.146431,19.5
BANARHAT,BNQ,26.797885,89.025682,80.0
BANASANDRA,BSN,13.265332,76.659317,17.25
BANASWADI,BAND,13.00573,77.628196,11.9
BANAVAR,BVR,13.395698823,76.1400537476,3.5
BANBASA,BNSA,28.991685,80.0732101,6.625
BANCHARI,BNCR,27.953085,77.362553,42.875
BAND HAMIRPUR,BAHP,26.32975,80.744382,36.0
BANDA JN,BNDA,25.477677,80.336246,103.125
BANDAKPUR,BNU,23.848206,79.575956,81.5
BANDARUPALLE,BDPL,16.3655265,80.3628002,52.0
BANDEL JN,BDC,22.9236565,88.3793623,71.18181818181819
BANDH BARETA,BR,26.910367,77.364108,25.0
BANDHNATH,BNTH,21.434145,70.356879,13.0
BANDHUA,BNF,24.75197374,85.06620037,39.0
BANDHUA KALAN,BDKN,26.271965,81.995392,159.0
BANDIKUI JN,BKI,27.039271,76.566723,40.375
BANESWAR,BSW,26.388205,89.494466,21.5
BANGA,BXB,31.177139,75.999562,11.333333333333334
BANGAIN,BGAN,27.238993,81.905924,7.5
BANGALBAREE,BJY,25.626454,88.229425,26.7
BANGALORE CANT,BNC,12.9936735,77.5993269,11.32258064516129
BANGALORE EAST,BNCE,13.00148,77.6184701,13.583333333333334
BANGARAPET,BWT,12.984808,78.178188,16.36842105263158
BANGARI,BGAR,26.538089,84.921285,22.0
BANGARMAU,BGMU,26.89181589,80.22205951,0.0
BANGI NIHAL SINGH,BNLS,30.008326,74.955285,10.833333333333334
BANGRIPOSI,BGY,22.130678,86.501362,241.33333333333334
BANGROD,BOD,23.3982156,75.1241457,15.0
BANGURGRAM,BNGM,26.1401115488,74.3482473108,7.0
BANGURKELA,BGKA,22.3505683976,84.9552704382,36.5
BANI,BANI,26.227488,81.620936,159.5
BANI BIHAR,BNBH,20.292611,85.852653,39.22222222222222
BANIYA SANDA DHORA,BSDA,25.86023,71.668563,3.0
BANKA,BAKA,24.8659010332,86.91169349,5.666666666666667
BANKA GHAT,BKG,25.547008,85.272742,45.75
BANKATA,BTK,26.265917,84.09492,86.83333333333333
BANKEGANJ,BNKJ,28.158478,80.416286,19.285714285714285
BANKHEDI,BKH,22.7748819,78.5379969,63.0
BANKURA,BQA,23.2243871,87.0746875,15.88888888888889
BANMANKHI JN,BNKI,25.885092,87.193664,35.416666666666664
BANNI KOPPA,BNA,15.40662732,75.94180892,15.0
BANNI MAHAMMANPATTI H,BMPT,25.891285,84.778666,15.833333333333334
BANO,BANO,22.6647837973,84.9029854114,65.0
BANPAS,BPS,23.40073073,87.74725107,31.928571428571427
BANSADHARA PH,BSDR,18.970276,83.822754,42.5
BANSAPAHAR,BNSP,25.055505,81.050022,62.0
BANSDIH ROAD,BCD,25.8115832,84.215238,29.0
BANSH BARIA,BSAE,22.957288,88.395641,29.0
BANSHLAI BRIDGE,BSBR,24.502611,87.862439,43.6
BANSI BOHERA,BYE,24.363233,74.388674,1.5
BANSI PAHARPUR,BIQ,26.93277,77.457241,28.0
BANSINALA H,BNSL,24.66529241,85.16182409,41.5
BANSIPUR,BSQP,25.1245132245,86.1448204578,36.1
BANSJORA,BZS,23.789931,86.354545,6.0
BANSKHO,BSKO,26.856115,76.142206,36.0
BANSTOLA PH,BNB,22.4209740526,87.062669671,402.8888888888889
BANTANAHAL,BLL,15.16290019,77.27572365,11.875
BANTAWALA,BNTL,12.878545,75.034456,5.0
BANTHRA,BTRA,27.929239,79.82818,0.0
BANWALI,BWC,29.919979,74.029894,6.666666666666667
BAORI THIKRIA,BOTI,27.41454869,75.511335,8.666666666666666
BAPATLA,BPP,15.9086144,80.4684248,85.5
BAPUDHAM MOTIHARI,BMKI,26.655733,84.90529,28.0
BAR,BAR,26.063048,74.113189,8.0
BAR LONGFER,BRLF,25.755626,93.225136,25.0
BARA,BBAR,24.001215,81.211862,0.0
BARA GUDHA,BGD,29.697657,75.001641,13.0
BARA JAMDA,BJMD,22.1665327,85.412392,41.333333333333336
BARABAMBO,BRM,22.70169729,85.72902996,37.25
BARABANKI JN,BBK,26.935335,81.18104,27.0
BARABAR H,BBHT,25.0558596095,84.9743682056,15.3
BARABHATI,BFF,20.862984,80.060841,70.75
BARABHUM,BBM,23.0912864,86.2112372,36.0
BARABIL,BBN,22.104577,85.369058,20.0
BARACHAK,BCQ,23.706726,86.928133,24.35
BARADEV,BRDV,26.7017793648,80.4119287744,0.0
BARADWAR,BUA,22.011725,82.813724,69.375
BARAGAON,BNM,26.7553741034,81.8470278857,35.0
BARAGOPAL,BAGL,25.765088,84.906765,49.375
BARAHAT,BHLE,24.9206004744,87.0100837976,30.071428571428573
BARAHU,BRHU,26.1204333815,92.1395124182,26.0
BARAI JALALPUR,BJLP,27.449608,80.800122,16.833333333333332
BARAIGRAM JN,BRGM,24.684059,92.344106,11.75
BARAIPURA H,BAPN,25.7394205815,86.1373006799,61.916666666666664
BARAKALAN,BQW,25.4915162541,83.8494928638,62.7
BARAKAR,BRR,23.7416829,86.818859,19.5
BARAL,BARL,28.494092,77.809975,22.166666666666668
BARALA,BAA,24.300532,88.039851,27.0
BARAMATI,BRMT,18.1536772,74.5781969,4.2
BARAN,BAZ,25.0967701,76.5051284,19.0
BARANG,BRAG,20.400699,85.832573,48.611111111111114
BARARA,RAA,30.213325,77.035501,18.166666666666668
BARARA BUZURG,BRRZ,26.052652,81.084138,53.75
BARAUNI F,BUJ,25.4735905867,85.9650784882,53.111111111111114
BARAUNI JN,BJU,25.461768,85.988748,46.75
BARAUT,BTU,29.09692,77.273006,33.65
BARAW MORE,BMHT,25.0437938949,84.0620363257,23.0
BARBATPUR,BBTR,22.197033,77.920758,47.5
BARCHI ROAD,BCRD,21.951502,78.311632,10.5
BARDDHAMAN JN,BWN,23.249718,87.870281,34.857142857142854
BARDI HALT,BDHT,21.621177,78.822411,72.0
BARDOLI,BIY,21.1342405,73.1058944,9.75
BAREILLY,BE,28.3371543,79.4108444,8.6
BAREILLY,BRY,28.3372843,79.4109744,37.375
BAREILLY CITY,BC,28.3556564,79.403718,19.31578947368421
BAREJADI,BJD,22.8954267,72.6778863,3.4615384615384617
BARELIPUR,BQM,22.051583,78.407732,11.333333333333334
BARETA,BRZ,29.8593339,75.6924026,23.0
BARETH,BET,23.91494729,77.99967978,30.0
BARGALIA,BGLI,27.287486,95.703548,2.5
BARGARH ROAD,BRGA,21.332903,83.642586,62.0
BARGAWAN,BRGW,24.197002,82.455989,0.0
BARGI,BUQ,22.995933,79.875125,52.375
BARH,BARH,25.46165,85.709426,53.166666666666664
BARHAJ BAZAR,BHJ,26.283912,83.731497,1.5
BARHAN JN,BRN,27.32891,78.192317,40.5
BARHAPUR H,BHAD,25.427352,85.860243,34.8
BARHARA KOTHI F,BAKT,25.776942,87.096319,10.0
BARHARAGANJ,BAGJ,26.921354215,83.9195740283,33.875
BARHARWA JN,BHW,24.857748,87.774493,23.05263157894737
BARHIYA,BRYA,25.2832026,86.0150768,47.9
BARHNI,BNY,27.4957951,82.7918337,113.1
BARI BRAHMAN,BBMN,32.63896,74.916171,0.0
BARI SADRI,BI,24.411465,74.468715,1.5
BARIARPUR,BUP,25.2810286076,86.5740372229,29.666666666666668
BARIPADA,BPO,21.9227408,86.73709,505.6363636363636
BARIPURA,BPRA,25.340728,79.943488,119.5
BARITHENGARH PH,BRTG,20.65696901,86.05967143,45.8
BARIWALA,BRW,30.53258,74.658953,21.5
BARKA H,BADK,29.0725646906,77.2733021582,33.05882352941177
BARKA KANA,BRKA,23.624159,85.469553,48.5
BARKICHANPI,BICI,23.483611,84.709751,11.0
BARKIPONA,BRKP,23.568766,85.646476,58.75
BARKISALALYA,BSYA,24.773978,84.178495,84.375
BARKUR,BKJ,13.4774588,74.7596804,52.5
BARLAI,BLAX,22.894163,75.962109,10.0
BARLANGA,BLNG,23.449913,85.833473,59.5
BARMER,BME,25.7445219,71.397067,1.75
BARNAGAR,BNG,23.0304117,75.6111208,23.9
BARNALA,BNN,30.3703968,75.5492466,23.5
BAROG,BOF,30.8908529,77.0829696,0.0
BARPALI,BRPL,21.1836377,83.5948758,64.75
BARPATHAR,BXP,26.274562,93.899672,30.0
BARPETA ROAD,BPRD,26.5028473,90.9639649,31.0
BARRACKPORE,BP,22.7610653,88.371428,14.722222222222221
BARRAJPUR,BJR,26.6851659,80.1386776,30.375
BARSALI,BYS,21.909813,78.031361,27.0
BARSATHI,BSY,25.564133,82.473946,135.0
BARSI TAKLI,BSQ,20.576054,77.060902,38.25
BARSOI JN,BOE,25.6512422,87.9229421,34.833333333333336
BARSOLA,BZO,29.394379,76.231711,35.25
BARSUAN,BXF,21.847398,85.119799,20.0
BARTARA,BRTA,27.837593,80.007541,0.0
BARUA CHAK,BRCK,27.122672,82.055181,74.5
BARUA NAGAR,BRNR,27.1439534016,95.2336378912,27.5
BARUNA,BUE,25.569781,84.089172,57.583333333333336
BARUNDANI,BNDI,25.173406,74.930101,17.5
BARUVA,BAV,18.900748,84.554233,75.0
BARWA KALAN H,BRSA,27.391266,83.408343,72.83333333333333
BARWA SAGAR,BWR,25.351848,78.731628,148.25
BARWADIH JN,BRWD,23.843836,84.11878,79.14285714285714
BARWALA,BXC,29.367534,75.887031,22.3
BARYA RAM,BYHA,25.566931,82.226592,141.16666666666666
BARYAL HIMACHAL,BRHL,32.025465,76.100072,9.571428571428571
BASAI,BZY,25.142923,78.394254,61.0
BASAI DHANKOT,BDXT,28.464735,76.983187,22.944444444444443
BASANTAPUR,BSTP,21.548768,85.67659,34.0
BASAR,BSX,18.86512,77.938506,54.0
BASARHIA HALT,BSRA,25.6921049276,85.8109824023,20.5
BASBARI,BSI,26.184354,89.900353,72.5
BASERIA,BZE,23.786754,86.381653,4.0
BASHARATGANJ,BTG,28.288009,79.2851956,23.125
BASI KIRATPUR,BSKR,29.497228,78.213283,8.166666666666666
BASIN BRIDGE JN,BBQ,13.102361,80.271221,12.043478260869565
BASMAT,BMF,19.3334723149,77.1517775964,46.0
BASNI,BANE,26.222963,73.010639,10.833333333333334
BASSI,BAI,26.840617,76.047213,29.375
BASSI BERISAL,BSSL,25.024084,74.764318,8.5
BASSI PATHANAM,BSPN,30.6884592,76.4096692,21.0
BASTA,BTS,21.7029241,87.0637831,189.33333333333334
BASTI,BST,26.815678,82.770059,121.25
BASTOI H,BTRO,27.66742,78.285451,27.375
BASUCHAK H,BSCK,25.53140767,83.34822341,88.0
BASUDEBPUR H,BDBP,24.6355270351,87.982535498,32.125
BASUDEOPUR CHANDAIL H,BDUA,25.6487380699,85.5426915326,34.8
BASUGAON,BSGN,26.460164,90.42015,73.5
BASUKINATH,BSKH,24.388941,87.045099,14.333333333333334
BASWA,BU,27.149686,76.575644,22.25
BATADRAWA ROAD,BTDR,26.466939,92.538085,14.0
BATALA JN,BAT,31.8214816,75.1944316,35.214285714285715
BATALA SUGAR MILLS,BATM,31.856906,75.228493,31.666666666666668
BATASI,BTSI,26.606703,88.175047,35.25
BATASPUR,BSLE,23.8802785594,87.6806814746,37.857142857142854
BATHNAHA,BTF,26.341854,87.237767,27.833333333333332
BATHUA BAZAR HALT,BHBR,26.4968303633,84.2321793958,25.5
BATUVA PH,BTVA,18.34308678,83.62409646,42.0
BAURIA JN,BVA,22.5035911202,88.1635216052,84.33333333333333
BAVLA,VLA,22.833389,72.365123,8.75
BAWAL,BWL,28.070281,76.572402,11.0
BAWANI KHERA,BWK,28.939509,76.032707,21.25
BAWLI H,BAOL,29.1404570352,77.278015354,31.0
BAYANA JN,BXN,26.916354,77.297131,11.285714285714286
BAYTU,BUT,25.897538,71.76868,3.75
BAZARGHAT,BZGT,24.607593,92.383418,3.5
BAZARSAU,BZLE,23.8757926,88.1828793,6.625
BAZIDA JATAN,BZJT,29.613391,76.965812,47.625
BAZPUR,BPZ,29.1578998,79.1463827,20.3
BEAS,BEAS,31.5193738,75.2908085,20.5
BEAWAR,BER,26.1089078,74.3149711,6.0
BEBEJIA,BEE,26.310185,92.640956,29.5
BECHHIWARA,BHWA,23.787792,73.535256,18.5
BEDHAM,BEDM,27.453929,77.209461,36.25
BEGU SARAI,BGS,25.425296,86.134476,60.333333333333336
BEGUMPET,BMT,17.4388739,78.4586266,40.8
BEGUN KUDAR,BKDR,23.383687,86.012587,17.25
BEHAJ,BEHJ,27.481951,77.396587,35.5
BEHTA HAZIPUR,BHHZ,28.71973,77.304041,26.22222222222222
BEHTAGOKUL,BEG,27.5304336,80.054854,0.0
BEHULA,BHLA,23.1819674,88.4287921,11.0
BEKAL FORT,BFR,12.385524,75.042786,7.0
BELA,BELA,24.97843,84.981353,30.35
BELA,BELT,25.0382570525,86.9982591626,28.785714285714285
BELA TAL,BTX,25.2767862477,79.5544818896,139.5
BELAGAVI,BGM,15.8492433,74.5095639,16.333333333333332
BELAGULA,BLGA,12.3856986769,76.5887032642,12.0
BELAKOBA,BLK,26.591441,88.583312,13.833333333333334
BELAMPALLI,BPA,19.0536892,79.4863374,66.5
BELANDUR ROAD,BLRR,12.936565,77.706939,10.5
BELANKI,BLNK,16.84890756,74.86933565,26.5
BELARI HALT,BLRI,25.8459891799,85.7946562646,13.5
BELASER,BLSR,27.995122,73.653205,20.5
BELDA,BLDA,22.07144398,87.33691374,145.875
BELDANGA,BEB,23.9320594,88.2429681,15.863636363636363
BELERHAT,BQY,23.51930706,88.28291748,15.0
BELGAHNA,BIG,22.431085,82.032374,61.0
BELGHARIA,BLH,22.6619,88.389455,40.666666666666664
BELHA,BYL,21.961973,82.077189,27.5
BELKHERA,BELD,22.981891,79.299879,68.0
BELLAMKONDA,BMKD,16.46998,80.006313,68.0
BELLARY CANT,BYC,15.150286,76.894505,17.555555555555557
BELLARY JN,BAY,15.145135,76.921995,7.545454545454546
BELPAHAR,BPH,21.8272123,83.8490763,73.0
BELRAYAN,BXM,28.379381,80.915268,0.75
BELSIRI,BLRE,26.800481,92.514463,20.666666666666668
BELSONDA,BLSN,21.155027,82.035625,34.75
BELTHARA ROAD,BLTR,26.121418,83.841719,52.5
BELUR,BEQ,22.63591201,88.33950084,44.666666666666664
BENAL H,BENL,16.384407,75.882249,52.0
BENAPUR,BPE,22.27135231,87.37624084,153.375
BENDI,BFQ,23.763612,84.416974,99.625
BENIGANJ,BEJ,27.299916,80.440599,0.0
BENIPATTI PIRAPUR,BNPT,25.892949366,85.3090478906,36.75
BENIPURGRAM HALT,BPGR,26.317241,85.481349,30.5
BENISAR,BS,28.067563416,73.8954879211,31.166666666666668
BENODA,BNOD,21.449663,78.180007,19.75
BEOHARI,BEHR,24.0002687,81.3797154,0.0
BERAWANYA,BRNA,23.465606,75.334122,15.75
BERCHHA,BCH,23.2824808,76.3341929,18.5
BERHAMPORE CRT,BPC,24.0890841,88.263642,12.727272727272727
BERIA DAULAT H,BRDT,29.13221,79.210042,19.6
BERMO,BRMO,23.772498,85.955893,71.66666666666667
BERO,BERO,23.548271,86.726609,35.285714285714285
BERORE,BROR,29.200034,73.300793,3.25
BETAMCHERLA,BMH,15.449372,78.148636,29.5
BETAVAD,BEW,21.149244,74.886199,10.5
BETHAMPURDI,BTPD,17.543986,80.573657,71.33333333333333
BETHUADAHARI,BTY,23.610275,88.384597,15.636363636363637
BETNOTI,BTQ,21.74134,86.8435187,216.0
BETTADNAGENHALLI H,BTGH,14.1738302683,76.2593350818,10.0
BETTAHALSOOR H,TLS,13.166876,77.606186,12.5
BETTIAH,BTH,26.8058847,84.5229561,30.166666666666668
BETUL,BZU,21.896393,77.905897,28.0
BEVINAHALU,BNL,15.16697376,77.21298975,10.75
BEWAR BHOJAN,BWBN,28.5476822027,75.5683413623,25.666666666666668
BHABTA,BFT,23.9869677,88.241584,12.590909090909092
BHABUA ROAD,BBU,25.173007,83.618913,94.0
BHACHAU BG,BCOB,23.301391,70.344972,11.5
BHACHHBAR,BBC,25.73181,71.044404,3.0
BHADAIYAN,BDIN,26.171113,82.169148,41.0
BHADAN,BDN,26.9793918,78.7374946,50.25
BHADANPUR,BUU,24.16808,80.679777,37.0
BHADAURA,BWH,25.4504253,83.738354,72.2
BHADBHADAGHAT,BVB,23.375165,77.535282,26.0
BHADBHUNJA,BBAI,21.166264,73.693754,11.25
BHADER,BADR,21.36507,70.928979,0.16666666666666666
BHADOHI,BOY,25.3952636,82.5583597,70.16666666666667
BHADRACHALAM RD,BDCR,17.550365,80.616024,64.33333333333333
BHADRAKH,BHC,21.0917458,86.5162305,48.23076923076923
BHADRAVATI,BDVT,13.8424287,75.702832,11.25
BHADRESHWAR,BHR,22.8279397,88.34153486,43.0
BHADRI,BHDR,25.6766583,81.5677547,88.5
BHADROLI,BBY,26.30595,78.181356,17.333333333333332
BHADUTALA,BUTA,22.485657,87.3208,12.5
BHADWAD,BAWD,21.32315915,74.09831697,5.0
BHAGA JN,VAA,23.723331,86.405555,16.8
BHAGALPUR,BGP,25.2419093,86.9767918,28.37037037037037
BHAGAT KI KOTHI,BGKT,26.2484972,73.0133366,8.0
BHAGIRATHPUR H,BHGP,27.326628,83.38771,72.83333333333333
BHAGSAR,BSGR,30.452385,74.401977,20.625
BHAGWANGOLA,BQG,24.333178,88.309816,14.285714285714286
BHAGWANPUR,BNR,25.85831672,85.30109021,49.375
BHAGWANPUR DESUA,BGDS,25.82701,85.846025,57.666666666666664
BHAGWANSAR,BNSR,29.343806,73.859791,8.333333333333334
BHAINI KHURD,BZK,29.751544,76.955362,48.0
BHAINSA,BSA,27.391523,77.673452,36.5
BHAINSWAN,BASN,29.094392,76.680769,16.0
BHAIRABI,BHRB,24.19545969,92.54106045,0.5
BHAIRANAYAKANAHALLI H,BNKH,13.194258,77.383393,6.8
BHAIROGANJ,BRU,27.15141815,84.24239742,100.75
BHAIRONGARH,BOG,23.1449211037,74.7760641077,16.0
BHAJERA,BJRA,27.1007745881,76.6568744922,69.5
BHAKARAPET,BKPT,14.4093627,78.97007317,13.0
BHAKRAULI,BHKL,28.308471,78.474665,36.5
BHAKTI NAGAR,BKNG,22.282963,70.792278,4.0
BHALEJ,BAJ,22.63303,73.034499,3.0
BHALUI,BFM,25.0732160325,86.172874585,36.1
BHALUKA ROAD F,BKRD,25.3425716,87.9121276,33.75
BHALULATA,BUL,22.266491,85.060382,23.75
BHALUMASKA,BLMK,19.32812783,83.29429956,45.5
BHAN KARI,BAK,26.962546794,76.4094554639,41.0
BHANAPUR,BNP,15.38694828,76.036416,15.25
BHANAUR,VNN,25.57316,82.530022,135.5
BHANDAI,BHA,27.06906445,77.96680748,25.5
BHANDAK,BUX,20.084262,79.112528,52.0
BHANDARA ROAD,BRD,21.238512,79.647523,101.9
BHANDARIDAH,BHME,23.7566729304,86.0550986423,70.16666666666667
BHANDARTIKURI,BFZ,23.43319157,88.32981731,12.0
BHANGA,BXG,24.857347,92.457351,17.75
BHANGALA,BNGL,32.0195148161,75.6123133521,37.0
BHANJPUR,VZR,21.95074,86.73407,98.0
BHANKALA H,BNQL,29.8455908377,77.4743493237,54.666666666666664
BHANKODA,BKD,23.2708108783,72.1277773999,12.5
BHANSI,BHNS,18.77690197,81.26535758,71.5
BHANUPLI,BNLY,31.2990814767,76.420351792,15.0
BHANVAD,BNVD,21.9330444,69.7988578,5.75
BHANWAR TONK,BHTK,22.607916,81.897794,63.5
BHARAT KHAND,BRKB,25.400254,86.805753,48.833333333333336
BHARAT KUP,BTKP,25.217166,80.767679,84.75
BHARATGARH,BARJ,31.1104617696,76.5914031689,25.0
BHARATKUND,BTKD,26.6360965,82.1273931,105.5
BHARATPUR JN,BTE,27.237107,77.488613,43.714285714285715
BHARATWADA,BWRA,21.231695,79.0171081,60.0
BHARMAR,BRMR,32.167399,75.954299,8.857142857142858
BHAROLI,BHRL,32.27104809,75.61637323,26.25
BHAROPATTI,BHTH,25.894911,86.907187,41.875
BHARSENDI,BSDL,24.036488,82.06039,0.0
BHARTHANA,BNT,26.7502248,79.2163612,39.666666666666664
BHARUCH JN,BH,21.706907,72.997689,7.5
BHARUR H,BZ,30.165006839,75.8156104224,11.5
BHARWA SUMERPUR,BSZ,25.825413,80.167419,73.0
BHARWARI,BRE,25.5591917,81.4918665,148.125
BHATAPARA,BYT,21.732464,81.946062,33.75
BHATARIYA,BTYA,23.438252,72.274465,9.0
BHATASA H,BHTS,27.50375661,79.38388843,12.833333333333334
BHATEL,BHTL,22.1640963,69.4936287,31.0
BHATIEL,BHAL,22.477066,72.834624,1.0
BHATINDA CANTT,BTIC,30.19088,74.954044,13.25
BHATINDA JN,BTI,30.209488,74.932083,3.4
BHATISUDA,BTSD,23.392187,75.421478,8.375
BHATIYA,BHTA,22.0881542,69.2803623,23.5
BHATKAL,BTJL,13.98866,74.5655589,52.5
BHATNI JN,BTT,26.381257,83.934035,71.05555555555556
BHATON KI GALI,BHG,27.105646,75.712919,3.8333333333333335
BHATPAR RANI,BHTR,26.3104766,84.0331014,85.16666666666667
BHATPURA,BHAT,26.327284,77.674711,12.4
BHATTIAN,BTTN,31.071444,75.780007,22.0
BHATTIPROLU,BQU,16.105632,80.787953,8.9
BHATTU,BHT,29.387323,75.34013,16.0
BHAUPUR,BPU,26.46811536,80.12429014,45.833333333333336
BHAVANAGAR PARA,BVP,21.77089,72.118682,13.333333333333334
BHAVANI NAGAR,BVNR,17.156895,74.312946,19.5
BHAVNAGAR TRMUS,BVC,21.781668,72.141059,3.6363636363636362
BHAWANI MANDI,BWM,24.419472,75.82981,11.25
BHAWANIPATNA,BWIP,19.93393,83.158398,65.0
BHAWANIPUR BIHAR,BWPB,25.5946164603,87.8677507141,33.0
BHAWANIPUR KALN,BWP,27.415623,82.161102,80.5
BHAYAVADAR,BHY,21.8478371804,70.2361448566,10.0
BHEDIA,BDH,23.586642,87.711813,33.5
BHEDUASOL,BXL,23.1943639299,87.13517328,20.1
BHEEMPURA,BIPR,25.129644,72.392249,19.0
BHEERPUR,BEP,25.265024,81.98924,147.75
BHEJA,BHJA,18.47264914,82.68546381,40.0
BHELWA,BLV,26.994131,84.778361,79.5
BHEMSWADI,BSWD,21.485727,71.357286,11.5
BHERAGHAT,BRGT,23.1697663,79.7978789,56.0
BHESTAN,BHET,21.1278829,72.8613128,20.428571428571427
BHETAGURI,VTG,26.3029681,89.6653098,19.75
BHIGWAN,BGVN,18.317256,74.775042,189.5
BHIKAMKOR,BKC,26.80763,72.787203,17.0
BHIKNUR,BKU,18.1644907169,78.3991508228,58.625
BHILAD,BLD,20.2753232,72.887446,12.909090909090908
BHILAI,BIA,21.2025983,81.4217238,13.615384615384615
BHILAI PWR HS,BPHB,21.208119,81.375901,12.153846153846153
BHILAINAGAR,BQR,21.2013382,81.3343451,13.653846153846153
BHILAVDI,BVQ,17.008048,74.516781,20.0
BHILDI,BLDI,24.194251,72.008187,1.5
BHILGAON,BHGN,26.354394,93.926117,30.0
BHILUPUR,BILP,22.196155,73.323477,3.25
BHIMADOLU,BMD,16.80848173,81.26109679,75.75
BHIMAL,BIML,24.7524306,73.9224402,10.4
BHIMALGONDI,BMC,21.740994,78.914582,70.75
BHIMARLAI,BMQ,25.89293086,71.88173556,10.5
BHIMAVARAM JN,BVRM,16.543097,81.538335,13.9375
BHIMAVARAM TOWN,BVRT,16.547348,81.516853,2.75
BHIMGARA,BMGA,23.73804814,87.28427905,9.3
BHIMKHOJ,BMKJ,21.080325,82.289327,63.0
BHIMNATH,BNH,22.245963,71.92503,8.75
BHIMRANA,BMRN,22.389889,68.992445,32.0
BHIMSEN,BZM,26.419754,80.218145,55.125
BHIND,BIX,26.5889049,78.7774353,9.4
BHINDAR,BNNR,24.528647,74.179638,3.0
BHIRA KHERI,BIK,28.334799,80.486132,5.0
BHISA H,BHSA,26.576529,85.533501,58.8
BHITI,BYH,25.333548,82.261348,157.75
BHITONI,BHTN,23.1427283,79.6740109,58.0
BHIWANDI ROAD,BIRD,19.268544,73.045654,20.5625
BHIWANI,BNW,28.7984261,76.1255797,8.666666666666666
BHIWANI CITY,BNWC,28.8256985,76.1442991,17.5
BHODWAL MAJRI,BDMJ,29.1852092,77.0082364,43.611111111111114
BHOGPUR,BOP,22.401522,87.809079,32.5
BHOGPUR SIRWAL,BPRS,31.5565937,75.6452234,34.0
BHOJIPURA JN,BPR,28.4939826,79.44724,53.77272727272727
BHOJO,BOJ,27.0635982,95.032406,40.5
BHOJUDIH JN,BJE,23.642175,86.4469993,11.333333333333334
BHOKAR,BOKR,19.213965,77.666535,37.5
BHOKE,BOKE,17.0490546,73.3810615,48.5
BHOLLDIH,BLME,23.898444,86.116898,41.25
BHOMA,BHV,22.171372,79.689457,15.0
BHONE,BHNE,21.018946,75.222477,10.0
BHONGAON,BGQ,27.2590416,79.1657234,5.5
BHONGIR,BG,17.524696,78.89847,59.2
BHONRA,BON,25.1710611364,76.1976736633,16.0
BHOPAL JN,BPL,23.2668843843,77.4131428577,9.0
BHOPALKA,BPKA,22.1227803,69.3687405,32.5
BHOPATPUR,BFPA,28.3754640974,79.8051375,5.5
BHORAS BUDRUKH,BFJ,20.538301,75.014292,2.625
BHORTEX,BRTK,21.102508,74.995996,11.5
BHOWRA BH,BCB,23.67077,86.417009,15.666666666666666
BHUA,BHUA,25.9455806635,79.3510848193,39.625
BHUBANESHWAR NEW,BBSN,20.382175,85.835187,45.111111111111114
BHUBANESWAR,BBS,20.265388,85.842595,37.916666666666664
BHUCHCHU,BCU,30.209882,75.0951862,15.5
BHUDA,BUDA,27.1289860174,76.8145379749,68.25
BHUDPUR,BDHP,29.218093878,77.2911682959,33.666666666666664
BHUGAON,BPK,20.6738192,78.6700027,41.5
BHUJ,BHUJ,23.2660225,69.6778278,3.0
BHUKARKA,BKKA,29.2382273125037,74.7510309610516,10.5
BHULANPUR,BHLP,25.2878753,82.9575192,158.375
BHULI,BHN,23.8022772592,86.3946927771,20.0
BHULON,BLO,24.635909,76.968812,14.5
BHUPALSAGAR,BSJ,24.8477620899,74.2116131934,12.0
BHUPDEOPUR,BEF,21.97503504,83.25998102,64.75
BHUPIA MAU,VPO,25.875223,81.970286,138.5
BHURJIHA BARAGN,BUGN,27.638101,80.726312,29.285714285714285
BHURKUNDA,BHKD,23.6375642,85.3721452,100.125
BHUSANDPUR,BSDP,19.9517927,85.4764825,47.125
BHUSAVAL JN,BSL,21.0472812,75.7886717,20.6
BHUTESHWAR,BTSR,27.50137,77.66784,55.6
BIBINAGAR,BN,17.470511,78.794355,33.666666666666664
BICHIA,BIC,28.1830705,81.2720808,0.25
BICHPURI,BCP,27.176397,77.91435,52.3
BIDADI,BID,12.8004252,77.3902984,15.125
BIDANPUR,BDNP,25.585017,81.442017,148.5
BIDAR,BIDR,17.9116836,77.5137793,36.625
BIDHAN NAGAR,BNXR,22.592432,88.391045,11.0
BIDYADABRI,BDYR,26.271855,89.767506,57.5
BIGGA,BIGA,28.0474529072,74.2013701563,33.833333333333336
BIGGABAS RAMSARA,BGRM,28.04769242,74.20154743,27.333333333333332
BIGHAPUR,BQP,26.3551471,80.6934544,40.75
BIHAR SHARIF,BEHS,25.206116,85.5390747,64.83333333333333
BIHAR STATE SUGAR C,BSCP,24.547613,85.366148,51.25
BIHARIGANJ,BHGJ,25.732599,86.992655,5.5
BIHAT H,BEHT,25.4497699558,86.0334555469,60.666666666666664
BIHIYA,BEA,25.558893,84.448984,75.0
BIHTA,BTA,25.5609486,84.8740874,53.611111111111114
BIJAULI,BJI,25.3764678,78.5177461,58.25
BIJAURIA,BJV,28.574785,79.655274,11.7
BIJAYSOTA,VST,23.978724,81.110959,0.0
BIJNI,BJF,26.497967,90.707827,34.0
BIJNOR,BJO,29.3856298,78.1468047,12.833333333333334
BIJOOR,BIJR,13.8221962,74.6420535,52.5
BIJORA,BJK,25.1451124,76.3956989,18.0
BIJROTHA,BJA,24.9469398,78.4216048,66.5
BIJULI HALT,BJIH,26.186676,85.976126,67.4
BIJURI,BJRI,23.2503386,82.1189461,20.09090909090909
BIJWASAN,BWSN,28.5367,77.051292,28.555555555555557
BIKANER JN,BKN,28.014139,73.316598,12.8
BIKKAVOLU,BVL,16.9693168335,82.031148067,0.0
BIKRAM SHILA,BKSL,25.30004436,87.3002182,31.0
BIKRAMGANJ,XBKJ,25.218914,84.273731,29.1
BIKRAMPUR,BMR,23.082226,79.586316,60.0
BILASPUR JN,BSP,22.057473,82.167585,40.88461538461539
BILASPUR ROAD,BLQR,28.865601,79.254263,24.5
BILDI,BILD,23.2255232,74.9185387,16.75
BILGA,BZG,31.058267,75.666841,33.5
BILHAUR,BLU,26.839002,80.060383,32.5
BILIMORA JN,BIM,20.763319,72.970474,12.0
BILKHA,BILK,21.4430784,70.6004021,15.75
BILLI,BXLL,24.453381,83.011944,57.25
BILOCHPURA AGRA,BFP,27.202619,77.987169,69.0
BILPUR,BLPU,28.083668,79.625781,0.0
BIMALGARH JN,BUF,21.964332,85.017326,32.5
BIMBARI H,BMBE,19.164065,77.631226,39.0
BINA JN,BINA,24.1709735,78.1831998,59.38461538461539
BINA MALKHEDI JN,MAKR,24.169924,78.223009,55.0
BINAIKI,VNK,22.72003,79.902424,50.125
BINAUR,BNAR,26.402727,80.178721,61.25
BINDAYAKA,BDYK,26.924224,75.659572,10.5
BINDKI ROAD,BKO,26.116562,80.580557,98.66666666666667
BINDUBASINI,BDBS,24.792848,87.859263,15.4
BINDUKURI,BKTB,26.709022,92.734685,16.75
BINJHOL,BNJL,29.344605,76.923781,20.333333333333332
BIR,BIR,22.05264,76.547232,3.4
BIRADHWAL,BDWL,29.1741168151,73.896516228,47.0
BIRAHALLI H,BRBL,12.667132,76.385196,21.75
BIRAMBAD,BAMA,26.922783,77.32494,13.5
BIRAMDIH,BRMD,23.04578437,86.19920954,34.0
BIRANG KHERA,BMK,29.9125697133,74.6358642865,22.0
BIRAPATTI,BRPT,25.398913,82.917265,40.5
BIRARAJPUR,BIRP,22.8235001,86.06450201,29.5
BIRARI,BRRI,24.7313106127,78.5069974902,59.0
BIRAUL,BIRL,25.937062,86.233733,55.5
BIRBANS,BRBS,22.79397464,86.01393866,29.25
BIRLANAGAR,BLNR,26.237555,78.1953108,21.272727272727273
BIRMITRAPUR,BRMP,22.3971312,84.7369583,5.5
BIRNAGAR,BIJ,23.2358754,88.551252,14.714285714285714
BIROHE,BEO,25.173789,82.449749,147.0
BIRPURUSOTHAMPUR,BRST,19.99039983,85.80635131,33.25
BIRSINGHPUR,BRS,23.3672117,81.0433529,55.166666666666664
BIRUR JN,RRB,13.591101,75.974749,22.333333333333332
BISALEHALLI,BLHI,13.4826117961,75.9666857568,6.5
BISALPUR,BSUR,28.290516,79.812599,7.0
BISALWAS KALAN,BIWK,24.5000353,74.783084,16.166666666666668
BISANATTAM,BSM,12.84262771,78.25031624,22.875
BISAPURKALAN,BRKH,21.914681,78.923701,4.5
BISHANPUR HALT,BHNP,25.614900999,87.7461169672,34.5
BISHANPUR HARYANA,BSPH,29.274012,76.323906,32.857142857142854
BISHENGARH,BISH,25.448874,72.5752165,24.0
BISHESHWARGANJ,BEU,27.341282,81.833817,7.166666666666667
BISHNUPUR,VSU,23.065499,87.301071,16.88888888888889
BISHRAMPUR,BSPR,23.179178,82.98289,20.0
BISNUPRIYA H,VSPR,23.413186,88.3552,12.0
BISRA,BZR,22.248412,84.998591,20.5
BISSAMCUTTACK,BMCK,19.487438,83.458973,65.25
BISSAU,BUB,28.2401014,75.0612084,5.666666666666667
BISWA BRIDGE,BIS,20.88515715,76.33919345,45.5
BISWAN,BVN,27.4894825714,80.990464292,35.25
BITHAULI F,BTHL,25.817069,85.29179,38.375
BITRAGUNTA,BTTR,14.7685848,79.983146,26.333333333333332
BITROI,BTRI,27.984069,78.92398,47.857142857142854
BIWAI,BW,27.1106230397,76.6960924713,71.25
BLOCK HUT B,BHBV,25.274869,83.102203,49.0
BOBAS,BOBS,26.9056364,75.4980458,10.333333333333334
BOBBILI,VBL,18.576764,83.345722,38.125
BODARWAR,BBW,26.8780004923,83.6381910315,91.58333333333333
BODDAVARA,BDVR,18.175095,83.112494,48.0
BODELI,BDE,22.2701906,73.7165798,6.6
BODHADI BUJRUG,BHBK,19.4962759853,78.1952487683,37.0
BODHAN,BDHN,18.645933,77.8881657,24.75
BODWAD,BDWD,20.9035827,76.017046,47.75
BOGOLU,BVO,15.473393,77.914295,40.833333333333336
BOGRI ROAD,BGO,22.881747,87.325732,20.166666666666668
BOHANI,BNE,22.9137476381,78.9159773981,67.5
BOISAR,BOR,19.7985273,72.761899,14.375
BOJAWAS,BJWS,28.312786,76.252868,25.125
BOKAJAN,BXJ,26.018426,93.779466,35.5
BOKARO STL CITY,BKSC,23.656551,86.085016,15.5
BOKARO THERMAL,BKRO,23.7851503,85.8755782,69.33333333333333
BOKO,BOKO,25.999791,91.219674,25.25
BOLAI,BLX,23.3614006526,76.4864047449,16.0
BOLARUM,BMO,17.5335493,78.5154167,51.05882352941177
BOLARUM BAZAR,BOZ,17.5178475371,78.5159651358,52.666666666666664
BOLDA,BLC,19.5520321,77.2735908,51.25
BOLINNA DOABA,BLND,31.34286,75.656972,27.5
BOLPUR S NIKTN,BHP,23.657804,87.698136,34.07142857142857
BOLSA,BLSA,19.0012905282,77.7029205847,56.25
BOMMAGUNDANAKERE,BOMN,14.59167,76.68023,17.0
BOMMASAMUDRAM H,BUM,13.044566,79.176067,0.0
BOMMIDI,BQI,11.984698435,78.2462805359,45.0
BONA KALU,BKL,17.031591,80.261499,56.0
BONDAMUNDA,BNDM,22.2355174,84.9250581,13.333333333333334
BONGAIGAON,BNGN,26.478293,90.560548,33.166666666666664
BONIDANGA,BDAG,24.82345158,87.81052581,23.0
BORAKI H,BRKY,28.507908,77.563617,29.470588235294116
BORDHAL,BXY,21.997011,78.348164,13.666666666666666
BORDI,BIO,22.8664871,74.3470986,8.0
BORDI ROAD,BRRD,20.122424,72.766138,13.0
BORDUBI ROAD,BDT,27.399181,95.314595,17.0
BORGAON,BGN,20.7290593,77.1796502,49.0
BORHAT,BFD,27.164263,95.277512,35.25
BORIDAND,BRND,23.267799,82.178765,24.818181818181817
BORIVALI,BVI,19.228739,72.856412,13.833333333333334
BORKHEDI,BOK,20.86017604,78.97444766,51.5
BOROTI,BOT,17.3950185,76.2535626,84.0
BORRAGUHALLU,BGHU,18.275624,83.040289,42.5
BORTALAO,BTL,21.218301,80.626207,71.5
BORVIHIR,BRVR,20.7843263,74.8417412,3.0
BOTAD JN,BTD,22.1828706,71.6655966,9.538461538461538
BOXIRHAT,BXHT,26.307287,89.751593,71.5
BRAHAMANI PH,BRMI,20.8629520076,86.0562098645,48.416666666666664
BRAHMANPALLI,BMPL,17.832927985,78.4501792358,42.375
BRAHMAPUR,BAM,19.2961348,84.7966912,41.2
BRAJRAJNAGAR,BRJN,21.822718,83.923653,67.25
BRAMHAPURI,BMP,20.603943,79.867537,84.375
BRAR SQUARE,BRSQ,28.613526,77.14079,0.0
BRAYLA CHAURASI,BRLA,23.5556827445,75.0927610413,21.5
BRIJ KISHOR H,BKRH,26.31374,84.69461,18.25
BRIJ NAGAR,BINR,27.439639,77.089708,37.25
BRIJMANGANJ,BMJ,27.195537,83.197098,134.1
BRUNDAMAL,BXQ,21.806503,84.016216,22.666666666666668
BUDA BHARTHARA H,BUBT,27.108219,78.670329,5.75
BUDALUR,BAL,10.782843,78.981443,10.176470588235293
BUDAUN,BEM,28.0274922,79.1360237,47.375
BUDDIREDDIPPATI,BDY,12.04465861,78.3127518,41.75
BUDHA KHERA,BKDE,29.378719,76.557193,17.333333333333332
BUDHAPANK,BDPK,20.85315668,85.25582286,70.5
BUDHDEVCHAK YADAV NAGAR,BCYN,25.4968269712,85.3313080389,30.53846153846154
BUDHI,BDHY,32.440429,75.432931,0.0
BUDHLADA,BLZ,29.9217422,75.5496866,22.5
BUDHMA,BDMA,25.902768,86.857009,53.2
BUDHSINGHWALA,BDSW,29.8317084068446,74.2226606793702,5.666666666666667
BUDVEL,BDVL,17.3093773,78.4245182,58.125
BUGIA,BUGY,29.38048,73.608155,10.166666666666666
BUGLANWALI,BUGL,29.7917506695799,74.2389733716846,4.4
BULANDSHAHR,BSC,28.3919187,77.8482415,17.0
BULLUANA,BHX,30.217553,74.78304,15.285714285714286
BUNDI,BUDI,25.407922,75.650699,9.5
BUNDKI,BEK,29.522577,78.3932854,47.25
BUNIADPUR,BNDP,25.386267,88.402088,9.0
BURAMARA,BWO,22.107567,86.650295,11.75
BURGULA H,BRGL,16.993515,78.205223,81.0
BURHAR,BUH,23.213204,81.528406,40.8
BURHPURA,BPW,25.211179,78.42955,58.75
BURHWAL,BUW,27.087081,81.39016,38.0
BURJ MOHAR,BJMA,30.185034097,74.2058883679,13.0
BURMI H,BRMX,27.489413,80.560821,0.0
BURNPUR,BURN,23.6719137,86.9386234,34.90909090909091
BUTARI,BTR,31.556444,75.183274,50.75
BUTEWALA,BWF,31.080357,74.896803,24.1
BUTI BORI,BTBR,20.91847276,79.01362896,54.5
BUXAR,BXR,25.562067,83.982184,40.333333333333336
BYADARAHALLI,BDRL,12.5019534049,76.7520832336,14.2
BYATRAYANAHALLI,BFW,13.00203974,77.98850762,20.105263157894736
BYREE,BYY,20.628257,86.034947,52.0
C BABUSAMUDRAM,CBU,11.919465,79.686417,10.166666666666666
C CABIN,CCAB,21.209789,81.443063,13.25
C SHAHUMHARAJ T,KOP,16.70257,74.237695,3.3333333333333335
CAMPIERGANJ,CM,27.05777,83.267384,109.5
CANCONA,CNO,15.006906,74.039454,19.25
CANNANORE SOUTH,CS,11.866899,75.400253,22.25
CANSAULIM,CSM,15.344532,73.897226,15.833333333333334
CAPPER QUARRY,CQS,11.694558,79.753666,13.166666666666666
CASTLE ROCK,CLR,15.397879,74.334484,0.0
CAUVERY,CV,11.351027,77.760945,30.666666666666668
CAVALRY BARRCKS,CVB,17.494734,78.518694,54.75
CHABUA,CHB,27.481420709,95.1720581342,17.0
CHACHER,CHCR,21.241422,79.354918,106.9
CHAF H,CHAF,26.8285100187,84.0939686646,33.625
CHAIBASA,CBSA,22.560494,85.812342,37.166666666666664
CHAILAHA H,CHAH,26.6748122335,84.8946473267,27.0
CHAINPUR,CNPR,23.729821,85.582933,69.83333333333333
CHAINWA,CW,26.022117,84.496496,63.4
CHAJAWA,CJW,25.008594,76.580569,19.0
CHAJLI,CJL,30.0429855351,75.8122863483,15.75
CHAK BANWALA,CKLA,30.423043,74.133437,23.625
CHAK PAKHEWALA,CKA,30.434234,74.19716,23.625
CHAK SIKANDAR,CSR,25.6767202377,85.365246145,40.5
CHAKAND,CKH,24.8901416,84.9954942,32.3
CHAKARBHATHA,CHBT,22.003082,82.112168,18.583333333333332
CHAKARLAPALLI,CPL,13.99779,77.583123,10.25
CHAKARPUR,CKK,28.951978,80.002313,6.5
CHAKDAHA,CDH,23.078406,88.529672,14.222222222222221
CHAKDAYALA,CKDL,32.478914,75.304858,0.0
CHAKERI,CHK,26.38116,80.406546,89.5
CHAKIA,CAA,26.417182,85.04636,24.1
CHAKITING,CFG,26.5616754046,94.0956546234,14.0
CHAKKALI LAI H,CKLT,28.874271,78.611771,34.25
CHAKMAKRAND,CKRD,25.6975316046,85.2740297845,36.3
CHAKRA ROAD H,CKYD,26.001213,83.672178,43.166666666666664
CHAKRADHARPUR,CKP,22.678979,85.627771,24.0
CHAKRAJ MAL,CAJ,29.249784,78.536047,41.5
CHAKROD,CKOD,23.3530905936,76.779716546,17.0
CHAKSAFAURA H,CKSR,28.211203,79.842478,4.833333333333333
CHAKULIA,CKU,22.478149,86.721161,363.92857142857144
CHALAKUDI,CKI,10.3017975,76.3218076,12.125
CHALALA,CLC,21.4155588,71.1622425,0.16666666666666666
CHALISGAON JN,CSN,20.464109,74.999049,11.5
CHALKHOWA,CKW,27.4656628037,94.9592046722,20.0
CHALLAKERE,CHKE,14.315154,76.660017,32.25
CHALLAVARIPALLE,CLPE,14.876728,78.034438,0.0
CHALTHAN,CHM,21.157909,72.95617,12.5
CHAMAGRAM,CMX,24.821334,87.963345,25.0
CHAMARAJANAGAR,CMNR,11.934891,76.932807,2.0
CHAMARAJAPURAM,CMJ,12.29844,76.637861,3.15
CHAMPA,CPH,22.034731,82.665149,44.35294117647059
CHAMPAJHARAN,CJQ,22.101526,84.904212,25.5
CHAMPANER RD JN,CPN,22.541916,73.393378,9.0
CHAMPION,CHU,12.936251,78.262564,7.2
CHAMROLA,CMR,27.393032,78.180143,65.5
CHAMRUA,CHRU,28.796206,79.138988,19.0
CHAMUA,CAMU,27.1377021778,84.4008341907,102.33333333333333
CHAMUNDA MARG,CMMG,32.110941,76.421027,9.5
CHANAKYAPURI,CNKP,28.591905,77.172004,0.0
CHANCHELAV,CCL,22.79582544,73.71433934,5.0
CHAND BHAN,CBX,30.445148,74.880021,7.4
CHAND SIAU,CPS,29.13201,78.275855,13.5
CHANDA FORT,CAF,19.9400612,79.3122585,75.9
CHANDAN NAGAR,CGR,22.86747,88.354421,31.0
CHANDANATTOP,CTPE,8.932478,76.64532,4.25
CHANDANPAHARI,CNPI,24.404224,86.953082,11.0
CHANDAR,CNR,15.264834,74.047794,17.0
CHANDARI,CNBI,26.428098,80.360645,89.25
CHANDAULI MJHWR,CDMR,25.261093,83.267724,73.875
CHANDAUNA H,CNX,26.440884,85.723165,57.6
CHANDAUSI JN,CH,28.458626,78.780268,18.5
CHANDAWAL,CNL,25.946542716,73.868814577,9.5
CHANDER NAGAR H,CNJ,28.662871,77.331201,15.791666666666666
CHANDERA H,CDRA,12.179818,75.168292,5.666666666666667
CHANDERIYA,CNA,24.939558,74.629979,3.0
CHANDI MANDIR,CNDM,30.727071,76.886839,14.5
CHANDIA ROAD,CHD,23.6454399,80.701436,56.2
CHANDIGARH,CDG,30.7019773,76.82208,20.5
CHANDIL JN,CNI,22.956014,86.072109,50.375
CHANDIPOSI,CPE,22.068677,84.915988,25.5
CHANDKHEDA ROAD,CDK,23.111868,72.563224,6.833333333333333
CHANDKHIRA BAGN,CHBN,24.515852,92.287381,7.5
CHANDLODIYA,CLDY,23.074516,72.543606,10.75
CHANDOD,CDD,21.9919569730877,73.4521816391498,4.833333333333333
CHANDOK,CNK,29.576786,78.152782,38.75
CHANDRAGIRI,CGI,13.61173,79.312215,0.0
CHANDRAGIRI KOPPAL H,CGKR,12.485167,76.730177,10.0
CHANDRAKONA RD,CDGR,22.739076,87.340588,23.5
CHANDRAPUR,CD,19.960126,79.300505,53.0
CHANDRAPURA,CRP,23.755676,86.119775,40.416666666666664
CHANDRESAL,CDSL,25.212948,75.943986,12.5
CHANDSARA H,CXA,28.876214,77.725745,3.75
CHANDUR,CND,20.8045192,77.9821558,42.0
CHANDUR BAZAR,CNDB,21.219451,77.741807,19.0
CHANGANASERI,CGY,9.449881,76.548414,8.9
CHANGOTOLA,CGLA,22.2299461588,80.1187894812,44.75
CHANGSARI,CGS,26.256204,91.693023,14.0
CHANNAPATNA,CPT,12.659673,77.203824,12.25
CHANNASANDRA,CSDR,13.0109407208,77.6629705685,31.75
CHANPATIA,CAI,26.94163,84.530639,28.666666666666668
CHAPARMUKH JN,CPK,26.202272,92.511718,26.1
CHAPRAKATA,CPQ,26.4928550164,90.6120253168,33.833333333333336
CHAPRAWAT H,CHWT,28.541970328,77.7998909558,21.333333333333332
CHARALI,CGF,27.4496656596,95.3509509503,27.5
CHARAMULA KUSUM,CJS,19.020403,82.401044,35.0
CHARAUD,CRW,29.0094584,75.6466632,29.6
CHARBATIA,CBT,20.5693839,85.9113306,50.5
CHAREGAON,CRN,22.042038384,80.1401154919,57.25
CHAREWAN H,CWN,30.501187,74.578082,23.714285714285715
CHARGOLA,CGX,24.845884,92.416794,14.25
CHARKHARI ROAD,CRC,25.307556,79.745653,134.5
CHARKHI DADRI,CKD,28.600799,76.279921,10.833333333333334
CHARLAPALLI,CHZ,17.457672,78.605619,31.666666666666668
CHARPOKHARI H,CRQ,25.3615157718,84.487603186,25.0
CHARVATTUR,CHV,12.213321,75.15435,5.666666666666667
CHAS ROAD PH,CAS,23.415513,86.225425,21.333333333333332
CHATA,CHJ,27.711992,77.502978,63.166666666666664
CHATAR,CTHT,24.842144,85.495374,46.416666666666664
CHATRA,CTR,24.372846,87.849257,43.9
CHATRAPUR,CAP,19.3589572,84.973273,45.5
CHATRAPUR COURT PH,CAPC,19.358941,84.982543,38.5
CHATTRIPUT,CTS,18.922722,82.590027,40.0
CHAU MAHLA,CMU,23.948205,75.600861,7.666666666666667
CHAUBE,CBH,24.2372952691,85.8160239368,42.5
CHAUBEPUR,CBR,26.598928,80.211424,28.875
CHAUBISI,CHBS,26.5768067719,81.4336239673,154.0
CHAUDHURIBANDH,CDB,24.1118528783,85.9464457367,41.5
CHAUKHANDI,CHH,25.3398947588,82.834834126,68.0
CHAUKI MAN,CKM,30.814886,75.565673,20.9
CHAUNRAH,CNH,26.16506,79.782159,67.5
CHAURA,CUX,24.918896,86.287062,33.8
CHAURADANO,CAO,26.85049224,85.01767731,69.125
CHAURAKHERI,CRKR,24.567234,77.122019,13.5
CHAURE BAZAR,CHBR,26.469531,82.118735,104.5
CHAURI CHAURA,CC,26.673882,83.545894,93.0
CHAUSA,CSA,25.4984911003,83.8963314038,76.1
CHAVADIPALAYAM,CVD,11.255404,77.800933,21.5
CHAVAJ,CVJ,21.753134,73.010489,11.875
CHAVALKHEDE,CHLK,21.024084,75.352237,10.0
CHAWAPALL,CHA,30.7594625741,76.127464975,28.8
CHAYGAON,CGON,26.064069107,91.3952511639,24.0
CHEBROL,CEL,16.819948,81.396533,86.0
CHEDHABANNI H,CDBN,25.4918236287,86.5971965247,52.75
CHEEKATEEGALPLM,CEM,16.011698,79.682842,35.5
CHEGRO,CEME,24.0842485151,85.964766012,42.5
CHEGUNTA,CGTA,16.48536136,77.30225045,135.0
CHEMANCHERI,CMC,11.405279,75.720039,19.0
CHENGALPATTU,CGL,12.692864,79.981519,17.666666666666668
CHENGANNUR,CNGR,9.319504,76.608271,7.9
CHENNAI BEACH,MSB,13.09034,80.291601,13.666666666666666
CHENNAI EGMORE,MS,13.077678,80.260193,12.0
CHEPPADU,CHPD,9.232679,76.476742,8.571428571428571
CHERIYANAD,CYN,9.273119,76.585087,6.8
CHERUKARA,CQA,10.929228,76.228119,3.7
CHERUKUVADA,CKV,16.58967159,81.42156278,4.0
CHERUVUMADHAVARAM,CVV,16.746018,80.518783,54.5
CHETAR,CTQ,23.682881,84.646426,96.375
CHETTINAD,CTND,10.160613,78.775924,9.833333333333334
CHETTIYARPATTI,CII,10.575644554,78.3662318384,6.5
CHHABRA GUGOR,CAG,24.680339,76.850989,15.0
CHHADA,CHDX,23.237624,81.471427,42.625
CHHALESAR,CHLR,27.212079,78.084141,45.25
CHHAN ARORIAN,CHNR,32.46131096,75.35904533,0.0
CHHANDRAULI,CDRL,26.699202,81.23044,154.0
CHHAPI,CHP,24.034518,72.400221,5.5
CHHAPRA,CPR,25.78832,84.725004,43.666666666666664
CHHAPRA KACHERI,CI,25.785987,84.747095,25.9375
CHHARODI,CE,23.0491235176,72.2509186072,18.0
CHHARRA,CHRA,23.375747,86.422994,36.0
CHHATA ASCHAURA H,CATA,25.824617,84.253936,20.25
CHHATAINI,CTJ,23.994088,81.287323,0.0
CHHATNA,CJN,23.305386,86.975734,20.416666666666668
CHHAYAPURI,CYI,22.388284,73.179698,6.375
CHHEHARTA,CIA,31.621878,74.794278,24.333333333333332
CHHINA,CHN,31.902255,75.271993,33.833333333333336
CHHINDWARA JN,CWA,22.058201,78.953212,6.0
CHHINTANWALA,CTW,30.365958,76.014229,10.0
CHHIPADOHAR,CPDR,23.8133333478,84.2023836389,108.875
CHHIT MAKANDPUR,CTMP,25.2344931906,86.8739363257,25.6
CHHOTA AMBONA,CAM,23.76275318,86.57461305,18.083333333333332
CHHOTA GUDHA,COD,27.293803,75.599508,8.0
CHHOTA UDEPUR,CTD,22.314788,74.014286,3.0
CHHOTAKI MASAUDHI H,CKMI,25.3303974983,85.0317514441,23.5
CHHOTI ODAI,COO,26.558703,76.805294,21.75
CHHUCHHAPURA JN,CCP,22.214729,73.594519,8.1
CHHULHA,CLF,23.106724,81.73707,55.5
CHIANKI,CNF,23.973902,84.11566,83.33333333333333
CHICHAKI,CCK,24.053224666,85.9917268481,40.75
CHICHOLI,CCO,21.458741,79.702691,38.7
CHICHOLIBUZURG H,CCBG,20.613113,79.912753,75.25
CHICHONDA,CCD,21.709709,78.352032,61.5
CHIDAMBARAM,CDM,11.391471,79.7033411,20.0
CHIGICHERLA,CCA,14.517474,77.683488,9.333333333333334
CHIHERU,CEU,31.262694745,75.7066912787,31.25
CHIK BALLAPUR,CBP,13.4313153,77.7325398,8.222222222222221
CHIK BANAVAR,BAW,13.073539,77.506341,15.045454545454545
CHIKALTHAN,CTH,19.859565,75.402851,53.333333333333336
CHIKASANA,CIK,27.199896,77.663925,58.3
CHIKJAJUR JN,JRU,14.126112,76.138705,30.0
CHIKKAMAGALUR,CMGR,13.3038846483,75.7887762634,2.5
CHIKKANDAWADI H,CKVD,14.1379202737,76.2025684888,3.5
CHIKNI ROAD,CKNI,20.325826,78.959217,48.0
CHIKODI ROAD,CKR,16.3690477592,74.7694943298,14.666666666666666
CHIKSUGUR,CK,16.336647,77.343832,128.33333333333334
CHILAKALAPUDI,CLU,16.202721,81.162137,3.75
CHILBILA JN,CIL,25.947331,82.004241,141.0
CHILHIA,CIH,27.35207,82.990864,126.2
CHILIKIDARA,CLDR,21.243022,85.827112,42.75
CHILKA,CLKA,19.686694,85.179914,40.0
CHILKAHAR,CHR,25.82699,83.965313,21.25
CHILUVUR,CLVR,16.379558,80.616908,43.4
CHILWARIYA,CLW,27.487001,81.698732,7.666666666666667
CHIMA PAHAD,CMW,17.516012,80.463656,105.0
CHIMIDIPALLI,CMDP,18.262764,83.076862,44.5
CHINCHLI,CNC,16.571697,74.855323,14.333333333333334
CHINCHPADA,CPD,21.206379,73.939242,16.0
CHINGAVANAM,CGV,9.537757,76.525885,8.444444444444445
CHINNA GANJAM,CJM,15.689502,80.236773,80.83333333333333
CHINNA SALEM,CHSM,11.631062,78.873821,9.75
CHINNADAGUDIHUNDI H,CGHD,12.084594,76.732445,5.5
CHINNARAVURU,CIV,16.224011,80.655843,9.7
CHINNEKUNTAPALLI,CCI,14.4427884187,77.8420563,0.0
CHINPAI,CPLE,23.839677,87.460637,8.9
CHINTAKANI,CKN,17.126459,80.201337,57.0
CHINTALPALLI,CLE,17.914856,79.701487,24.666666666666668
CHINTAMAN GANESH,CNN,23.145849,75.741029,7.5
CHINTAMANI,CMY,13.4109911,78.0545654,18.0
CHIPLUN,CHI,17.5425074,73.522429,49.5
CHIPURUPALLE,CPP,18.316259,83.569608,44.333333333333336
CHIRAIDONGRI,CID,22.411418,80.287402,16.166666666666668
CHIRAILLA PAUTHU,CPBH,24.863478,84.269003,38.0
CHIRAKKAL H,CQL,11.911049,75.353696,3.0
CHIRALA,CLX,15.830755,80.353602,80.5
CHIRAWA,CRWA,28.2233413650416,75.6506845168769,7.833333333333333
CHIRAYINKIL,CRY,8.6583379,76.7853703,9.571428571428571
CHIRGAON,CGN,25.575053,78.805761,77.75
CHIRMIRI,CHRM,23.1894855,82.3495508,5.8
CHIT BARAGAON,CBN,25.744109,84.00154,96.66666666666667
CHITAHRA,CTHR,24.862627,80.842854,69.25
CHITAL,CTL,21.745689,71.218128,17.75
CHITGIDDA,CTF,17.391231,77.963909,47.8
CHITHARI HALT,CHIT,25.228309,79.890762,45.0
CHITRADURG,CTA,14.231154,76.386431,34.25
CHITRAKOOTDHAM,CKTD,25.217611,80.922775,92.0
CHITRAPUR,CTTP,14.036148,74.536566,34.5
CHITRASANI,CTT,24.267558,72.488653,2.5
CHITRAWAD,CTRD,21.101116,70.557048,14.166666666666666
CHITTAPUR,CT,17.1197808,77.0904516,47.25
CHITTARANJAN,CRJ,23.857138,86.878036,27.7
CHITTAURGARH,COR,24.874341,74.623687,8.555555555555555
CHITTERI,CTRE,13.068172,79.597909,14.875
CHITTOOR,CTO,13.219857,79.103252,2.5714285714285716
CHITYALA,CTYL,17.221960824,79.135713114,0.0
CHODIALA,CDL,29.896398,77.738546,31.0
CHOKI SORATH,CKE,21.659142,70.525813,11.25
CHOLA,CHL,28.31216512,77.72940894,36.785714285714285
CHOLANG,CGH,31.61726,75.639894,36.833333333333336
CHOMUN SAMOD,COM,27.158223,75.70272,5.5
CHONDI,CWI,19.430619765,77.1556666229,52.5
CHONGAJAN,CJA,26.062329,93.818104,30.5
CHOPAN,CPU,24.51403,83.025843,18.0
CHORGHATPIPARIA,CRE,23.044097,79.929889,41.625
CHORGI,CHRG,17.175077,75.869711,7.0
CHORVAD ROAD,CVR,21.055196,70.290734,17.666666666666668
CHOTI KHATU,CTKT,27.155534,74.35723,11.0
CHOUPALE,CUE,21.377019,74.319097,12.5
CHOURARI,CHUA,22.057632,79.246686,20.0
CHOUVARA,CWR,10.133064,76.372189,7.25
CHOWKA GHAT,CKG,27.100002,81.449932,38.25
CHOWRIGACHA,CWLE,23.942472,88.186451,6.458333333333333
CHUCHELA KALAN H,CLKN,29.014596,78.272803,10.166666666666666
CHUCHURA,CNS,22.890191,88.3695,31.571428571428573
CHUDA,CDA,22.4952113502,71.7500982013,13.625
CHUDAWA,CRU,19.1803282622,77.1169303369,43.666666666666664
CHUHRIWALA DHANNA,CWDA,30.2120749136,74.1355688647,22.0
CHUNAR,CAR,25.103351,82.874703,105.125
CHURAIBARI,CBZ,24.433621,92.241248,10.75
CHURAMAN NAGRI,CRG,27.40119,77.61767,12.5
CHURARU TAKARLA,CHTL,31.597665,76.166445,9.25
CHUREB,CRV,26.782155,82.977636,57.666666666666664
CHURK,CUK,24.6496787,83.1032006,47.0
CHURU,CUR,28.288281,74.966203,19.1
CINNAMARA,CMA,26.715527,94.169432,20.5
COIMBATORE JN,CBE,10.997639,76.966298,3.5294117647058822
COIMBATORE NRTH,CBF,11.019937,76.954304,5.071428571428571
COLONELGANJ,CLJ,27.137698,81.694178,38.0
COOCH BEHAR,COB,26.3029681,89.6653098,21.25
COONOOR,ONR,11.343714,76.791337,1.0
COROMANDEL,COL,12.97518,78.257278,7.95
COSSIMBAZAR,CSZ,24.122264,88.266903,14.071428571428571
CUDDALORE PORT,CUPJ,11.715119,79.766287,13.11111111111111
CUDDAPAH,HX,14.45169,78.829184,9.4
CUTTACK,CTC,20.466588,85.90156,38.84615384615385
D A V COLLEGE JALANDHAR,DAVJ,31.346977,75.56132,19.75
D CABIN,DCAB,21.226612,81.477969,9.25
DABHODA,DBO,23.168331,72.748038,11.75
DABHOI JN,DB,22.137755,73.415466,7.3125
DABILPUR,DBV,17.674226,78.470315,42.375
DABLI RATHAN,DBI,29.542416,74.19093,23.25
DABOLIM,DBM,15.389334,73.849937,8.0
DABPAL,DBF,18.92798,81.488923,35.0
DABTARA,DUB,28.368424,78.991164,24.125
DADAR,DDR,19.019731,72.843465,14.5
DADHAPARA,DPH,22.028156,82.123182,26.083333333333332
DADHDEVI,DDV,25.07784,75.898016,11.8
DADPUR,DPX,24.829399,86.349076,31.5
DADRI,DER,28.53794,77.537422,32.35294117647059
DAGHORA,DAO,21.857535,83.678086,71.75
DAGMAGPUR,DAP,25.098881,82.800991,153.5
DAGORI,DGS,21.905693,82.069143,29.333333333333332
DAGRU,DAU,30.834858,75.047442,18.9
DAHANU ROAD,DRD,19.991217,72.743368,13.153846153846153
DAHAPARA DHAM,DHPD,24.195866,88.246087,5.636363636363637
DAHAR KA BALAJI,DKBJ,26.944321,75.765669,9.833333333333334
DAHEGAON,DAE,20.729315,78.463093,40.5
DAHGAON,DGX,26.444446,92.613689,14.0
DAHINA ZAINABAD,DZB,28.2910785745,76.391694342,29.125
DAHOD,DHD,22.843607,74.253374,2.5714285714285716
DAILWARA,DWA,24.78059,78.392945,81.5
DAINHAT,DHAE,23.60191,88.170269,16.0
DAKANIYA TALAV,DKNT,25.145188,75.865501,9.7
DAKOR,DK,22.747203,73.1585918,6.916666666666667
DAL CHAPRA F,DCP,25.82706,84.432615,18.75
DALAN,DLF,25.6118,87.560853,25.8
DALAUDA,DLD,23.948637,75.105361,35.0
DALBHUMGARH,DVM,22.506293,86.551921,337.5
DALDALI,DLDE,25.820221,93.517152,36.0
DALELNAGAR,DLQ,27.118537,80.419624,0.0
DALGAON,DLO,26.715384,89.136244,81.0
DALHOUSI ROAD,DLSR,32.289064,75.750843,0.0
DALIGANJ,DAL,26.875384,80.927482,5.4
DALIMGAON,DLX,25.640548,88.3863,18.3
DALKOLHA,DLK,25.873416,87.838877,50.375
DALLI RAJHARA,DRZ,20.586729,81.067973,29.272727272727273
DALMAU JN,DMW,26.07525,81.05365,30.125
DALMERA,DLC,28.417832,73.65658,41.0
DALPAT SINGHPUR,DPT,29.929458,73.524416,5.833333333333333
DALPATPUR,DLP,28.820438,78.877187,18.5
DALSANUR,DNU,13.274642,78.171853,7.25
DALSINGH SARAI,DSS,25.6647486,85.8414652,61.125
DALTONGANJ,DTO,24.033075,84.074843,78.91666666666667
DAM DIM,DDM,26.859243,88.671333,49.75
DAMALCHERUVU,DCU,13.478885,79.056434,0.0
DAMANJODI,DMNJ,18.767771,82.865768,48.0
DAMAY,DMYA,23.971208,80.996787,0.0
DAMNAGAR,DME,21.688346,71.509053,25.0
DAMODAR JN,DMA,23.651021,86.908517,33.04545454545455
DAMOH,DMO,23.836693,79.432246,56.0
DANAPUR,DNR,25.581921,85.044629,43.75
DANAULI PHLWRIA,DPL,25.420471,86.249406,61.833333333333336
DANDIMAL PH,DNDL,20.715235,85.53418,51.25
DANDKHORA,DNQ,25.5724052479,87.6422368182,39.5
DANDU GOPALAPURARN H,DGB,18.542976,84.241768,16.0
DANEA,DNEA,23.799131,85.658334,72.5
DANGARWA,DNW,23.401485,72.441253,11.375
DANGIDHAR,DGD,23.871771,79.019912,71.0
DANGOAPOSI,DPS,22.167964,85.59273,44.333333333333336
DANGTAL,DTX,26.465846,90.465049,79.0
DANISHPET,DSPT,11.8589191624,78.1382563446,41.75
DANIYAWAN BZR H,DNWH,25.4345036206,85.2908951074,29.4
DANIYAWAN F,DHWN,25.4219860001,85.2874685571,28.875
DANKAUR,DKDE,28.415313,77.643211,31.823529411764707
DANTAN,DNT,21.930376,87.284055,202.16666666666666
DANTEWARA,DWZ,18.907733,81.354536,38.5
DANTIA,DTF,27.1971512117,76.9610701135,73.5
DANWAR,DAR,28.12996851,77.88391252,42.92307692307692
DAPPAR,DHPR,30.5176409515,76.8075098584,23.75
DAPSAURA,DPSR,25.983503,80.202954,71.5
DARA,DARA,24.832609,76.005784,12.0
DARASURAM,DSM,10.944384,79.356384,9.333333333333334
DARAULI,DRV,25.393753,83.601802,63.083333333333336
DARAZPUR,DZP,30.152546,77.195721,18.833333333333332
DARBHANGA JN,DBG,26.157088,85.907575,59.294117647058826
DAREKASA,DKS,21.271299,80.580751,71.4
DARIMETA,DDMT,21.536803,78.5411,57.75
DARJEELING,DJ,27.038151,88.263326,0.0
DARLIPUT,DPC,18.365186,82.746519,41.5
DARRITOLA,DTL,23.289638,82.395751,28.75
DARYABAD,DYD,26.861303,81.550114,34.0
DARYAOGONJ,DRO,27.5980988686,79.0824955792,15.875
DARYAPUR,DYP,26.182799,81.248588,19.75
DASAMPATTI,DST,12.251026,78.438356,31.25
DASARA,DSME,24.2746022656,85.790855545,45.5
DASHARATHPUR,DRTP,25.265181819,86.4645322803,25.857142857142858
DASNA,DS,28.690719,77.528116,47.0
DASUYA,DZA,31.80853,75.657932,36.166666666666664
DATEWAS,DTW,29.893255,75.616682,21.0
DATIVLI CABIN,DTVL,19.187012,73.059049,19.9
DAUD KHAN,DAQ,27.830504,78.098797,67.0
DAUDPUR,DDP,25.90709,84.591425,64.3
DAULATABAD,DLB,19.916367,75.210494,41.0
DAULATPUR HARYANA,DULP,29.452123,75.88859,23.5
DAULATPUR HAT,DLPH,25.32611273,88.33278722,10.0
DAUN KALAN,DOC,30.3792190643,76.4585689563,22.0
DAUND JN,DD,18.463547,74.578622,21.0
DAUNDAJ,DNJ,18.2300065666,74.176780918,28.5
DAURAI,DOZ,26.395604,74.619546,12.0
DAURALA,DRLA,29.114015,77.70616,52.5
DAURAM MADHPURA,DMH,25.908513,86.782638,58.416666666666664
DAUSA,DO,26.900047,76.330336,29.75
DAUSNI,DSNI,29.784745,77.979636,32.25
DAVANGERE,DVG,14.467834,75.92229,7.5
DAYA BASTI,DBSI,28.667329,77.17139,39.285714285714285
DAYALPUR,DLPR,25.6322106511,81.8894849231,103.0
DAYANAND NAGAR,DYE,17.456247,78.53135,51.0
DEBAGRAM,DEB,23.685277,88.306807,15.545454545454545
DEBARI,DRB,24.606987,73.805352,14.8
DEBIPUR,DBP,23.1446129567,88.1559976581,8.0
DEBRABANDHAULI H,DBLI,26.384826,85.76995,56.1
DEEDAR GANJ,DDGJ,25.5695431489,85.2575111389,32.61538461538461
DEEG,DEEG,27.48655053,77.32451142,36.0
DEENAPATTI,DEPI,25.89498,86.937159,41.75
DEEPNAGAR H,DPNR,25.140667,85.483274,73.0
DEGANA JN,DNA,26.897349,74.316388,16.0
DEHRADUN,DDN,30.3140377,78.0336011,1.0
DEHRI ON SONE,DOS,24.914895,84.185434,80.42105263157895
DEKARGAON,DKGN,26.681166,92.763075,11.166666666666666
DEKPURA H,DKR,25.2611531167,85.52942276,63.25
DELANG,DEG,20.038474,85.76695,33.714285714285715
DELHI,DLI,28.661816,77.228356,32.92045454545455
DELHI AZADPUR,DAZ,28.702646,77.176713,35.705882352941174
DELHI CANTT,DEC,28.613534,77.116577,27.61111111111111
DELHI INDRAPURI H,DLPI,28.6283424665,77.1435882578,0.0
DELHI KISHANGNJ,DKZ,28.664732,77.201256,39.26086956521739
DELHI S ROHILLA,DEE,28.662992,77.187106,25.352941176470587
DELHI SAFDARJNG,DSJ,28.582121,77.186969,0.0
DELHI SHAHDARA,DSA,28.673098,77.293154,33.816326530612244
DELHI SHAHDARA A PAN,DSAP,28.673349,77.31954,46.0
DELVADA,DVA,20.773429,71.041529,18.0
DEMU,DEMU,23.69708,84.52562,99.375
DEO ROAD,DORD,24.8230736763,84.5634225305,53.0
DEOBAND,DBD,29.6800315,77.6708734,60.666666666666664
DEOGAN ROAD,DFR,20.554779,83.430063,62.0
DEOGHAR,DGHR,24.51178242,86.69712126,16.333333333333332
DEOKALI,DEO,27.977317,80.705156,23.428571428571427
DEONAGAR,DNH,23.758691,86.16169,14.0
DEORAGRAM,DRGM,24.096925,82.352464,0.0
DEORAHA BABA ROAD H,DRBR,26.283979,83.871091,2.75
DEORAKOT,DELO,26.754368,81.906358,34.5
DEORANIAN,DRN,28.64478,79.476473,35.7
DEORI,DOE,23.298435,80.009808,59.5
DEORIA SADAR,DEOS,26.5076811676,83.7819590961,137.5
DEOTALA,DOTL,25.274329,88.294214,10.0
DEPALSAR,DEP,28.2368573,74.9203375,40.333333333333336
DEPUR PH,DPUR,19.972516,83.250076,65.25
DERGAON H,DGNH,25.088974,85.751319,30.5
DEROL,DRL,22.630205,73.462158,8.375
DESANG,DSX,27.056055,94.686324,3.0
DESARI,DES,25.6683593565,85.4087656586,40.2
DESHAPRAN P H,DSPN,22.029347,87.817047,16.375
DESUR,DUR,15.754344,74.49801,17.666666666666668
DETROJ,DTJ,23.3320278103,72.1765459082,12.25
DEULTI,DTE,22.452857,87.914003,40.0
DEVAKOTTAI ROAD,DKO,10.037611,78.761747,19.5
DEVALGAON AUCHR,DAV,19.322431,76.605201,70.66666666666667
DEVANAHALLI,DHL,13.246834,77.704631,10.375
DEVANGONTHI,DKN,12.985647,77.831087,24.434782608695652
DEVANUR,VNR,13.439282,76.08846,3.5
DEVARAPALLI,DPE,13.7238065903,77.512236488,25.25
DEVARKADRE,DKC,16.630504,77.838261,129.5
DEVBALODA CHRDA,DBEC,21.21335,81.45049,12.846153846153847
DEVI HALT,DVH,21.706411,78.86207,71.75
DEVRI PH,DRPH,22.85663,79.836698,43.0
DEVTHANA H,DVN,19.274562,77.689981,24.25
DEWALGAON,DEW,20.8911603401,80.0792665497,80.5
DEWAN HAT,DWT,26.3029681,89.6653098,28.5
DEWANGANJ,DWG,23.429766,77.592867,26.0
DEWAS,DWX,22.977556,76.051191,10.5
DHABAN,DABN,29.859997,74.54288,22.5
DHABAULI HALT,DHBI,25.6820902631,85.3421818591,19.0
DHABLAN,DBN,30.3379133215,76.276917865,31.666666666666668
DHACHNA,DHNA,25.6464732123,87.9869386938,21.2
DHAIPUKHURI,DHRY,25.981051,92.880626,24.5
DHAKIA TIWARI H,DOT,28.028812,79.885872,1.6666666666666667
DHALGAON,DLGN,17.1209672,74.9887134,42.0
DHAMALGAON,DMGN,27.325566,94.856569,13.5
DHAMANGAON,DMN,20.784674,78.138054,38.5
DHAMARA GHAT,DHT,25.590821,86.599522,54.92857142857143
DHAMDHAMIA,DDX,24.9603876804,87.7615573059,26.6
DHAMNI,DNE,19.647058,77.177888,52.25
DHAMPUR,DPR,29.305446,78.501588,44.5
DHAMTAN SAHIB,DTN,29.688827,76.004006,74.25
DHANA KHERLI,DXK,26.950169,77.535779,16.0
DHANA LADANPUR,DZL,28.7502173348,76.1667579382,10.0
DHANAKYA,DNK,26.91819,75.605607,9.75
DHANAPUR ORISSA,DIR,18.945173,82.507393,37.5
DHANARI,DN,28.3284610746,78.5095957336,42.5
DHANAURI,DNRE,25.1719686608,86.1591750293,24.214285714285715
DHANBAD JN,DHN,23.790966,86.428956,38.63636363636363
DHANDARI KALAN,DDL,30.874477,75.909491,24.833333333333332
DHANDHERA,DNRA,29.8434029837,77.9019227979,33.25
DHANDHUKA,DCK,22.384024,71.975613,8.75
DHANERA,DQN,24.506528,72.032364,11.5
DHANG,DAG,26.7174,85.353298,71.0
DHANIACHHA,DCX,25.2271654039,83.4908372314,74.5
DHANMANDAL,DNM,20.687806,86.11228,52.0
DHANOLI PH,DNL,21.3221098696,80.4275908063,69.2
DHANORA DECCAN,DHNR,19.4655174389,78.1327540271,37.5
DHANSIRI,DSR,25.810836,93.613598,29.5
DHANSU,DNX,29.211731,75.801658,19.714285714285715
DHANUVACHAPURAM,DAVM,8.378802,77.124352,18.545454545454547
DHAPEWARA,DPW,21.8727211592,80.1913272595,41.0
DHARAMPUR,DMPR,28.150306,78.265728,28.5
DHARAMTUL,DML,26.189127,92.36716,28.0
DHARANGAON,DXG,21.006447,75.286092,13.0
DHARESHWAR,DRS,25.777584,73.667743,8.0
DHARHARA,DRH,25.2578934114,86.4115380682,24.285714285714285
DHARI JN,DARI,21.326767,71.027594,0.16666666666666666
DHARIWAL,DHW,31.949113,75.321565,39.583333333333336
DHARMABAD,DAB,18.8882603101,77.8493415012,57.5
DHARMADAM H,DMD,11.778949,75.46377,17.0
DHARMANAGAR,DMR,24.366946,92.168247,4.75
DHARMAPURI,DPJ,12.126595,78.154742,10.5
DHARMAVARAM JN,DMM,14.424369,77.717115,7.5
DHARMINIYA H,DRQ,26.865525,84.793439,32.25
DHARMPUR HMCHL,DMP,30.900491,77.023914,0.0
DHARNAODA,DHR,24.592205,77.099253,13.0
DHARODI,DHY,29.6399235976,76.0559746887,74.5
DHARUADIHI,DIH,21.995145,84.223691,0.0
DHARUR,DRR,17.28952,77.75853,56.75
DHARWAR,DWR,15.440386,75.004552,10.0
DHASA JN,DAS,21.782545,71.518008,21.333333333333332
DHATRIGRAM,DTAE,23.277796,88.311822,20.0
DHAULIMUHAN,DLMH,20.079332,85.604772,30.0
DHAUNI,DWLE,25.010329682,86.9930409827,30.214285714285715
DHAURA,DUA,24.44965,78.321791,53.5
DHAURMAU JAGHINA,DUM,27.292281,77.536538,22.5
DHAURSALAR H,DUO,26.798349,80.081404,22.125
DHEENA,DHA,25.354392,83.423069,61.75
DHEKIAJILI ROAD,DKJR,26.809214,92.452548,28.833333333333332
DHEKVAD,DWD,21.339179,74.13857,6.75
DHENGLI PP GOAN,DGPP,19.406622,76.49169,69.33333333333333
DHENKANAL,DNKL,20.676825,85.590878,51.75
DHIGAWARA,DGW,27.296265,76.613599,33.5
DHILWAN,DIW,31.498953,75.335011,47.5
DHINDA,DHND,26.890931,75.361206,8.75
DHINDHORA HKMKD,DNHK,26.803925,77.103482,20.75
DHINDSA,DDK,30.895838,74.738503,14.0
DHING,DIU,26.453101,92.450865,14.0
DHING BAZAR,DBZ,26.455873,92.481039,14.0
DHINOJ,DHJ,23.6710024,72.2818798,11.0
DHIRERA,DHRR,28.363519,73.616355,40.0
DHIRGANJ,DHRJ,25.745642,81.924339,143.5
DHIRPUR,DPP,30.0663927023,76.8440512238,28.11111111111111
DHODA KHEDI,DHKR,30.018915,76.842512,28.333333333333332
DHODHAR,DOD,23.770741,75.103546,28.5
DHODRA MOHAR,DOH,22.281504,77.875226,50.0
DHOLA JN,DLJ,21.822549,71.738273,17.4375
DHOLA MAZRA,DHMZ,30.120678,76.854437,28.77777777777778
DHOLBAZA,DLZ,26.2748,87.271397,29.857142857142858
DHOLI,DOL,25.976952,85.562495,55.375
DHOLI BHAL,DIBL,22.44572,72.0826,4.25
DHOLIPAL,DPK,29.7608267139059,74.2515999544412,7.166666666666667
DHOLKA,DOK,22.731982,72.433842,9.0
DHONDHA DIH,DDD,25.672848,83.79552,92.5
DHONDI,DNDI,19.106268,76.736112,20.166666666666668
DHONE,DHNE,15.396729,77.865727,32.5
DHORAJI,DJI,21.72217,70.44478,10.5
DHRANGADHRA,DHG,22.9871651,71.4791076,14.666666666666666
DHUANKHERI,DKRA,24.504973,75.89805,10.75
DHUBRI,DBB,26.023137,89.977952,50.5
DHUBULIA,DHU,23.483546,88.441145,16.59090909090909
DHULE,DHI,20.887752,74.768847,2.75
DHULIAN GANGA,DGLE,24.672086,87.937644,35.125
DHULKOT,DKT,30.395686,76.787535,20.625
DHUPDHARA,DPRA,25.979779,91.066009,24.375
DHURANA,DHRN,29.253606,76.803295,20.5
DHURANT JWAS H,DJS,25.220474,86.047715,54.666666666666664
DHURI JN,DUI,30.372741,75.866603,18.294117647058822
DHURWASIN,DRSN,23.129052,81.845641,21.0
DHUTRA,DTV,21.896882,84.091098,0.0
DIBAI,DIB,28.19378,78.303084,31.333333333333332
DIBNAPUR H,DBNR,28.524363,79.51619,11.25
DIBRUGARH,DBRG,27.4636065659,94.9352579102,15.333333333333334
DICHPALLI,DHP,18.613288,78.194667,91.33333333333333
DIDARGANJ ROAD,DJD,26.092367,82.805191,16.5
DIDWANA,DIA,27.406108,74.557656,16.0
DIGARU,DGU,26.173306,91.977861,20.666666666666668
DIGBOI,DBY,27.383483,95.616982,16.0
DIGHA FLAG STN,DGHA,21.622377,87.507655,7.833333333333333
DIGHWA DUBAULI,DWDI,26.2652295458,84.7432486377,19.75
DIGHWARA,DGA,25.743938,85.003168,51.25
DIGOD,DXD,25.196344,76.015396,14.0
DIKOM,DKM,27.4642265659,95.0806742816,17.5
DILAWARNAGAR,DIL,26.9601891,80.6674744,0.0
DILDARNAGAR JN,DLN,25.419424,83.668324,46.55
DILLIDEWANGANJ,DVJ,25.432721,87.778612,25.25
DILMILI,DMK,18.987443,81.737851,34.5
DILWA,DLW,24.53731788,85.41970863,54.5
DIMAPUR,DMV,25.905702,93.727816,48.0
DINA NAGAR,DNN,32.134789,75.467351,39.333333333333336
DINDIGUL JN,DG,10.35381,77.985472,3.5
DING,DING,29.4610537,75.2606046,15.333333333333334
DINGWAI,DWI,25.416805,80.414159,85.0
DINHATA,DHH,26.0707762,89.5868746,26.25
DINKAR GRAM SIMARIA,DKGS,25.411453,86.014464,40.0
DIPHU,DPU,25.83725,93.438384,29.0
DIPLANA,DPLN,29.1825726296989,74.8811228759587,11.666666666666666
DIVA,DIVA,19.188394,73.041905,16.541666666666668
DIVINE NAGAR,DINR,10.2853993721,76.3363143628,8.375
DIVITI PALLI,DTP,16.740883,78.084175,71.42857142857143
DIWANA,DWNA,29.318564,76.980194,46.27777777777778
DIWANKHAVATI,DWV,17.855413,73.418174,49.0
DIYAWAN H,DYW,25.3817289022,85.2839236682,23.5
DIYURI H,DYU,28.603253,79.87601,3.7142857142857144
DOBBSPET H,DBS,13.2331801567,77.2491554279,8.428571428571429
DOBHI H,DHE,25.604879,82.998947,64.75
DODAANATTA HALT,DTT,13.374454,78.133896,9.0
DODBALLAPUR,DBU,13.27894,77.55016,23.75
DODBELE,DBL,13.216441,77.351193,12.68421052631579
DODDAMPATTI,DPI,12.18134581,78.42225009,34.25
DODH,DODH,30.841607,74.521937,10.5
DODJALA H,DJL,13.183156,77.652122,12.25
DOHNA,DOX,28.434064,79.432729,27.944444444444443
DOHRU,DXU,26.083606,80.176723,63.0
DOIKALLU,DKLU,19.74188249,83.48161132,70.75
DOIWALA,DWO,30.175451,78.12218,26.0
DOKRA H,DOKM,23.782884,86.480808,13.294117647058824
DOKWA,DKWA,28.579787,75.323364,22.5
DOMINGARH,DMG,26.765251,83.341993,41.5
DONAKONDA,DKD,15.834631,79.484112,35.0
DONDAICHA,DDE,21.331414,74.563104,13.5
DONGARGARH,DGG,21.185492,80.759857,42.94117647058823
DONGRI BUZURG,DGBZ,21.573844,79.676645,52.1
DONKINAVALASA,DNV,18.468756,83.350942,39.125
DORAHA,DOA,30.804137,76.043303,29.4
DORAVART CHTRAM,DVR,13.814297,79.951308,38.333333333333336
DORNAHALLI,DOY,12.433086,76.42625,19.25
DORNAKAL JN,DKJ,17.445987,80.153157,40.285714285714285
DOSAPADU,DPD,16.468807,80.938771,5.25
DUBAHA,DUBH,25.948785,85.617108,56.75
DUBRAJPUR,DUJ,23.803358,87.378973,9.4
DUDAHI,DUE,26.8008621515,84.139379776,35.75
DUDDHINAGAR,DXN,24.2090318514,83.2167915363,67.75
DUDHANI,DUD,17.362421,76.37871,89.66666666666667
DUDHAUNDA H,DDNA,25.573305,83.084478,66.25
DUDHIA KHURD,DYK,28.46474,80.197805,5.714285714285714
DUDHNOI,DDNI,26.001459,90.76188,28.5
DUDHWAKHARA,DKX,28.4587,75.165315,27.75
DUDIA,DUK,25.934458,72.902042,17.666666666666668
DUDWA,DDW,28.50831,80.672161,3.25
DUDWINDI,DDY,31.237553,75.258143,22.363636363636363
DUGDA,DDGA,23.75873842,86.16192797,19.0
DUGDOL,DGQ,24.631708,72.096828,13.5
DUGGIRALA,DIG,16.327559,80.62357,61.7
DUHAI,DXH,28.730283,77.480363,36.55555555555556
DUKHERI,DOKY,30.294992,76.8839,18.5
DULAKHAPATNA PH,DLPT,21.007019,86.280874,44.5
DULIAJAN,DJG,27.367712,95.306952,29.25
DULLABCHERRA,DLCR,24.505297,92.477671,1.5
DULLAHAPUR,DLR,25.799898,83.423264,74.0
DUM DUM,DDJ,22.621717,88.392835,15.555555555555555
DUMARIYA,DY,26.864673,77.234121,15.75
DUMETRA,DMF,22.185683,84.914683,25.0
DUMKA,DUMK,24.289527,87.254975,11.1
DUMRA,DUMR,26.576993,85.533639,40.25
DUMRAON,DURE,25.571984,84.143865,63.07142857142857
DUMRI BIHAR,DMBR,23.807394,85.766204,73.16666666666667
DUMRI HALT,DMRX,25.2459362417,86.0283957056,34.9
DUMRI JUARA,DRI,25.748425,84.869395,45.75
DUMRI KHURD,DKU,21.310416,79.312269,239.25
DUMURDAHA,DMLE,23.040053,88.432662,10.0
DUMURIPUT,DMRT,18.780367,82.803933,49.0
DUNDARA,DOR,25.895799,72.796892,17.333333333333332
DUNDI,DDCE,23.557854,80.216657,60.0
DUNDLOD MKDGRH,DOB,27.9387993697755,75.2373538445681,8.833333333333334
DUNGAR JN,DGJ,21.078274,71.553226,4.5
DUNGARPUR,DNRP,23.867175,73.695462,19.5
DUNGRI,DGI,20.687336,72.949119,12.428571428571429
DUNGRIPALI,DJX,21.060873,83.559213,67.75
DUPADU,DUU,15.742888,78.013259,41.333333333333336
DURAUNDHA JN,DDA,26.086973,84.458946,55.142857142857146
DURG,DURG,21.200327,81.291837,18.5
DURGADA GATE,DGDG,17.2124765738,82.3489940906,0.0
DURGAPUR,DGR,23.495046,87.297902,41.206896551724135
DURGAUTI,DGO,25.207897,83.539684,75.875
DUROJI,DAJ,15.227107,76.70013,18.0
DUSI,DUSI,18.369969,83.857682,44.166666666666664
DUVRI KALAN,BARD,23.994181,81.507968,0.0
DUVVADA,DVD,17.703843,83.152059,0.0
DWARAPUDI,DWP,16.927556,81.922661,0.0
DWARKA,DWK,22.251023,68.980434,24.0
DWARKAGANJ,DWJ,26.316418,82.109076,105.0
EDAVAI,EVA,8.762883,76.697477,8.0
EDDULADODDI,EDD,15.329698,77.589906,53.25
EGATTUR,EGT,13.106198,79.88406,12.909090909090908
EKAMBARAKUPPAM,EKM,13.318604,79.573126,8.5
EKANGARSARAI,EKR,25.2224815,85.2322638,23.5
EKCHARI,EKC,25.2276230482,87.2138658521,32.5
EKDIL,EKL,26.76628,79.116455,39.22222222222222
EKLAKHI,EKI,25.167868,88.099492,29.3
EKMA,EKMA,25.967099,84.53637,63.3
EKSARI,EKH,25.134973,85.889325,44.416666666666664
ELAMANUR,EL,10.879069,78.57336,20.333333333333332
ELATTUR,ETR,11.346337,75.741119,26.0
ELAVUR,ELR,13.458351,80.116178,20.166666666666668
ELIMALA,ELM,12.0686868024,75.2308476031,5.0
ELLAMANCHILI,YLM,17.553652,82.85262,0.0
ELLENABAD,ENB,29.4441039926511,74.6579341054894,13.375
ELURU,EE,16.717816,81.119762,73.0
ENNORE,ENR,13.2181957171,80.3221244827,17.833333333333332
ERALIGUL,ELL,24.665398,92.332631,3.5
ERANIEL,ERL,8.212549,77.308161,35.09090909090909
ERICH ROAD,ERC,25.820641,79.035025,74.75
ERNAKULAM JN,ERS,9.969542,76.290672,2.789473684210526
ERNAKULAM TOWN,ERN,9.991582,76.2861,12.625
ERODE JN,ED,11.327682,77.725934,2.909090909090909
ERRUPALEM,YP,16.825374,80.471049,51.75
ETAH,ETAH,27.571173,78.653919,17.25
ETAKKOT,ETK,11.806195,75.443797,24.25
ETAWAH,ETW,26.78597,79.021502,25.22222222222222
ETMADPUR,ETUE,27.221536,78.197973,41.333333333333336
ETTAPUR ROAD,ETP,11.651009,78.468545,9.75
ETTIMADAI,ETMD,10.898788,76.897155,8.875
ETTUMANUR,ETM,9.676196,76.545152,10.222222222222221
EZHUKONE,EKN,8.979143,76.715068,7.5
EZHUPUNNA,EZP,9.820288,76.302391,11.833333333333334
FAIZULLAPUR,FYZ,25.869213,80.893347,146.0
FAKHARPUR H,FAP,28.846965,77.293521,26.944444444444443
FAKHRABAD,FKB,18.824644,77.974481,27.5
FAKIRAGRAM JN,FKM,26.365237,90.186189,76.5
FALIMARI,FLM,26.0707762,89.5868746,18.25
FAQARSAR,FSR,30.189431,74.572572,13.285714285714286
FARAH,FAR,27.334474,77.743659,63.5
FARHANTNAGAR,FRH,27.081164,80.143212,0.0
FARHEDI H,FRD,28.711716968,78.7937161591,10.0
FARIDABAD,FDB,28.411473,77.307348,41.0
FARIDABAD NW TN,FDN,28.376248,77.309368,41.72727272727273
FARIDAHA,FRDH,25.557959,83.126022,66.0
FARIDKOT,FDK,30.682857,74.76138,14.333333333333334
FARRUKHABAD,FBD,27.38236,79.571737,9.272727272727273
FARUKHNAGAR,FN,28.467066,76.828486,48.666666666666664
FATEH SINGHPURA,FSP,26.8216101334,77.1469610779,21.75
FATEH SINGHWALA,FSW,29.919979,74.029894,5.0
FATEHA H,FAH,25.598419045,85.8714580536,35.857142857142854
FATEHGARH,FGR,27.369608,79.62159,22.0
FATEHGARH HARYANA,FGH,28.647921,76.243784,9.75
FATEHGARH SAHIB,FGSB,30.650726,76.388124,16.8
FATEHNAGAR,FAN,24.81828,74.095782,11.333333333333334
FATEHPUR,FTP,25.917489,80.801869,109.3
FATEHPUR CHAURASI,FTC,26.843511,80.26179,0.0
FATEHPUR SIKRI,FTS,27.093989,77.670597,28.5
FATEHPUR SKHWTI,FPS,28.000728,74.971043,7.333333333333333
FATUHA JN,FUT,25.50144,85.305488,40.5
FATUHI,FTH,30.056984,73.871319,12.25
FAZALPUR,FZL,29.5937410175,78.2779537213,23.2
FAZILKA,FKA,30.408641,74.025417,12.61111111111111
FEROK,FK,11.1749722,75.8302845,26.4
FEROZESHAH,PHS,30.887454,74.78411,16.9
FIROZABAD,FZD,27.147415,78.386691,33.625
FIROZPUR CANT,FZR,30.942486,74.618439,9.131578947368421
FIROZPUR CITY,FZP,30.962007,74.600792,12.5
FORBESGANJ,FBG,26.298901,87.262803,27.333333333333332
FUNGO H,FNO,25.6187302859,86.6044763025,50.785714285714285
FURKATING JN,FKG,26.465652,94.002692,8.0
FURSATGANJ,FTG,26.244522,81.415651,158.0
G CABIN,GCAB,21.204608,81.431558,12.384615384615385
G POCHAMPALLI,GDPL,17.568097,78.488371,57.61538461538461
G RAMACHANDRAPUR,GRCP,19.990686,83.330182,65.25
GADADHARPUR,GHLE,24.013197,87.691891,35.4375
GADAG JN,GDG,15.437048,75.642481,27.857142857142858
GADARWARA,GAR,22.899459,78.791734,64.5
GADHAKDA,GKD,21.237962,71.381719,53.5
GADHWALA,GDW,27.970288,73.454923,30.833333333333332
GADIGANURU,GNR,15.219036,76.599178,18.625
GADRA ROAD,GDD,25.743851,70.64304,2.75
GADWAL,GWD,16.22509,77.809672,75.0
GAGARIYA,GGY,25.741083,70.734877,1.5
GAHLOTA,GLTA,26.6723715203,74.967556543,12.5
GAHMAR,GMR,25.488685,83.804431,70.7
GAHRI BHAGI,GHB,30.116783,74.944234,9.0
GAIGAON,GAO,20.720684,76.890093,41.0
GAINJAHWA,GAW,27.4546557588,82.2450647882,85.0
GAINSARI JN,GIR,27.5268392968,82.5441789069,94.0
GAIPURA,GAE,25.16045,82.386249,147.0
GAISAL,GIL,26.1848261159,88.0895072131,62.75
GAJAPATINAGARAM,GPI,18.293291,83.333902,41.75
GAJARA BAHARA,GAJB,24.05344,82.311761,0.0
GAJJELAKONDA,GJJ,15.777382,79.401298,33.0
GAJRAULA JN,GJL,28.834938,78.250784,21.75
GAJSINGHPUR,GJS,29.658053,73.436739,8.625
GAJU H,GAJU,27.204231,80.372973,0.0
GAJUWALA H,GJW,29.585509,75.871735,20.166666666666668
GALGALIA,GAGA,26.52752005,88.11348526,37.0
GALSI,GLI,23.358032,87.681236,21.692307692307693
GALUDIH,GUD,22.648872,86.410494,203.33333333333334
GAMBHIRI ROAD,GRF,24.693873,74.671009,18.0
GAMHARIA,GMH,22.796889,86.102793,28.11111111111111
GANAGAPUR ROAD,GUR,17.340443,76.5903,96.33333333333333
GANAUR,GNU,29.130776,77.01075,43.05555555555556
GANDHI H,GNHI,25.5720007108,84.961546925,26.875
GANDHIDHAM BG,GIMB,23.069086,70.147754,16.5
GANDHIGRAM,GG,23.02676,72.568831,3.0
GANDHINAGAR CAP,GNC,23.233379,72.629162,1.0
GANDHINAGAR JPR,GADJ,26.873067,75.79828,32.375
GANDHIPURAM HALT,GHPU,17.495052,80.31352,75.0
GANDHISMRITI,GNST,20.920848,72.921021,9.0
GANESHGANJ,GAJ,23.895862,79.074633,82.25
GANGA DHAM,GADM,27.20976,81.930509,6.666666666666667
GANGA SAHAI H,GGSY,25.269767,86.018783,54.666666666666664
GANGADHARA,GGAR,21.141419,73.043566,10.75
GANGADHARPUR,GNGD,19.815673,85.293235,42.75
GANGAGANJ,GANG,26.291456,81.201419,165.0
GANGAGARH H,GGG,27.850344,78.739109,43.142857142857146
GANGAGHAT,GAG,23.3613982411,85.5070501038,30.125
GANGAIKONDAN,GDN,8.830736,77.786203,5.5
GANGAJHARI,GJ,21.443153,80.058885,104.33333333333333
GANGAKHER,GNH,18.973377,76.755511,38.0
GANGANIA,GNNA,25.265514,86.593002,33.666666666666664
GANGAPUR CITY,GGC,26.468979,76.727708,17.6
GANGARAMPUR,GRMP,25.390399,88.516447,8.0
GANGATIKURI,GGLE,23.71822,88.087286,8.208333333333334
GANGATOLA,GNGT,22.392169,79.986339,28.5
GANGAULI H,GNGL,25.668107,82.863093,41.75
GANGAYAPLLE,GPY,14.55411935,78.71746345,0.0
GANGINENI,GNN,16.781754,80.498954,52.5
GANGIWARA,GNW,22.097988,78.846139,15.666666666666666
GANGPUR,GRP,23.223525,87.928116,3.0
GANGRAUL H,GNRL,28.28297,77.75473,34.714285714285715
GANGSAR JAITU,GJUT,30.445082,74.879511,9.0
GANGUWADA,GVA,18.66763705,84.1072235,43.75
GANGWA PUR H,GWP,26.9588041822,79.9979940411,23.375
GANI DHAM H,GIF,25.1634535646,86.9862695435,36.166666666666664
GANJ BASODA,BAQ,23.845347,77.944826,29.0
GANJ DUNDWARA,GWA,27.7264028171,78.939319176,14.0
GANJ KWAJA,GAQ,25.273922,83.184363,79.66666666666667
GANJAM,GAM,19.395827,85.046719,45.125
GANJMURADABAD,GJMB,26.987889,80.177008,0.0
GANKAR,GALE,24.4048041196,88.0728943982,27.5
GANKHERA,GKT,21.389118,80.191891,49.875
GANNAGHATTA,GJT,13.244119,78.146705,7.25
GANNAVARAM,GWM,16.555839,80.795715,69.75
GAREA BIHAR,GRBH,24.1289485964,85.9155275354,39.0
GARH BANALI,GBN,25.915091,87.535041,25.416666666666668
GARH BARUARI,GEB,26.019349,86.605596,44.833333333333336
GARH DHRUBBESWAR,GRB,23.509341,86.617006,38.875
GARH JAIPUR,GUG,23.416142,86.142459,21.0
GARHA,GARA,26.426289,85.520966,37.25
GARHANI,GQN,25.4118931462,84.5696156628,31.1
GARHARA,GHX,25.4409119004,86.0053080969,23.5
GARHBETA,GBA,22.844562,87.320972,21.4
GARHI HARSARU,GHH,28.43755,76.929697,37.8
GARHI MANIKPUR,GRMR,25.786329,81.403153,89.0
GARHMAU,GRM,25.506271,78.687944,77.25
GARHMUKTESAR,GMS,28.781743,78.073508,33.666666666666664
GARHMUKTESAR BR,GGB,28.7613999454,78.1412204187,49.25
GARHNOKHA,GNK,25.09724423,84.12283778,28.4
GARHSHANKAR,GSR,31.21799,76.142417,0.0
GARHWA,GHQ,24.1751953,83.8132154,60.0
GARIFA,GFAE,22.908445,88.409935,36.5
GARIVIDI,GVI,18.2732681907,83.5308410095,45.166666666666664
GARKHA F,GRAK,27.7485176041,78.8842900433,9.666666666666666
GARLA,GLA,17.487076,80.139236,16.333333333333332
GARLADINNE,GDE,14.827324,77.592146,6.166666666666667
GARNA SAHIB,GSB,31.7805618081,75.6534920825,33.666666666666664
GAROBIGHA H,GBHA,24.826792,85.467153,25.5
GAROT,GOH,24.2790919912,75.6843219769,10.0
GARPOS,GPH,22.134204,84.418434,0.0
GARSANDA,GSDH,25.142617,86.011307,42.166666666666664
GARUDUBILLI,GRBL,18.21449,83.350493,43.625
GARWA ROAD,GHD,24.214419,83.885116,62.416666666666664
GATORA,GTW,22.053427,82.22767,44.76470588235294
GAUCHHARI,GAI,25.438434,86.674696,55.875
GAUDGAON,GDGN,17.335973,76.530953,87.0
GAUNTRA,GNTR,27.1344458038,80.2178564343,0.0
GAUR,GAUR,26.913411,82.561158,87.0
GAURA,GRX,25.749367,82.091774,43.75
GAURI BAZAR,GB,26.594934,83.667801,91.0
GAURI SHRI RAM H,GSRM,26.7699800293,84.1867607922,32.5
GAURIBIDANUR,GBD,13.613081,77.512781,25.25
GAURIGANJ,GNG,26.20341,81.686726,159.5
GAURIPUR,GUP,26.078321,89.952056,69.5
GAURIYAMAU,GMU,26.757029,81.79366,32.5
GAUSHALA,GWS,29.298626,79.009802,10.25
GAUTAM STHAN,GTST,25.7868591282,84.6634794519,22.0
GAUTAMDHARA,GATD,23.3498809788,85.6329945703,44.5
GAUTAMPURA ROAD,GPX,23.2008894,75.6819899,23.75
GAWNAHA,GAH,27.269839,84.520176,0.0
GAYA JN,GAYA,24.803978,84.999294,46.97826086956522
GAYABARI,GBE,26.86004,88.260998,0.0
GAZIKA,GZKA,27.607734,76.655091,39.0
GAZOLE,GZO,25.224984,88.198885,12.0
GEONG H,GXG,29.8223584375,76.466397041,37.2
GERATPUR,GER,22.917292,72.655151,3.272727272727273
GETOR JAGATPURA,GTJT,26.836925,75.832384,29.25
GEVRA ROAD,GAD,22.348524,82.64566,7.8
GHADELA,GELA,21.714044,78.888017,71.75
GHAGGHAR,GHG,30.6111449411,76.848047774,24.625
GHAGHARA GHAT,GHT,27.1026834977,81.5033135022,38.0
GHAGWAL,GHGL,32.504286,75.213604,0.0
GHAL KALAN,GKX,30.822828,75.108915,20.142857142857142
GHALLU,GHLU,30.2566065213,74.1078213831,19.5
GHANAULI,GANL,31.025994,76.592143,22.727272727272727
GHANPUR,GNP,17.8506252,79.3768995,52.0
GHANTIKHAL NDPR,GHNH,20.510922,85.736186,40.0
GHARAUNDA,GRA,29.541636,76.96575,47.25
GHASARA H,GHSR,26.72284,79.360808,46.8
GHASO,GSO,29.531288,76.143369,34.666666666666664
GHAT PARASIA,GPSA,22.0597389624,79.0528523303,13.5
GHAT PINDRAI,GPC,22.952676,79.26631,69.0
GHATAKA VARANA,GKB,25.506883,76.160353,21.25
GHATAMPUR,GTM,26.151304,80.174712,72.5
GHATERA,GEA,23.8293873,79.6733909,87.0
GHATIGAON,GHAI,26.054864,77.92678,40.0
GHATKESAR,GT,17.453116,78.678217,32.44444444444444
GHATPRABHA,GPB,16.240718896,74.7598229541,16.333333333333332
GHATPURI,GTP,28.125246,79.205936,48.714285714285715
GHATSILA,GTS,22.58616,86.479768,292.64285714285717
GHAUSGANJ,GSGJ,27.1351268745,80.2918266571,0.0
GHAZIABAD,GZB,28.649702,77.431099,21.305084745762713
GHAZIPUR CITY,GCT,25.583144,83.568045,68.44444444444444
GHAZIPUR GHAT F,GZT,25.60028,83.604802,95.83333333333333
GHEVRA,GHE,28.691982,76.998536,35.714285714285715
GHIALA,GILA,32.151615,75.643939,35.333333333333336
GHOGA,GGA,25.2103054225,87.16086164,33.0
GHOGARDIHA,GGH,26.282768,86.468503,55.625
GHOGI BARIARPUR,GIBP,25.2058083716,86.3040822156,13.0
GHOGRAPAR,GOE,26.450742,91.539986,26.833333333333332
GHOLVAD,GVD,20.08688,72.737991,17.333333333333332
GHONSOR,GNS,22.658083,79.95091,50.5
GHORADONGRI,GDYA,22.126423,78.001987,46.5
GHORASAHAN,GRH,26.82028731,85.12762727,65.3
GHORGHAT,GOG,25.27073,86.58456,33.333333333333336
GHORI H,GHRI,27.373959,80.503293,0.0
GHORMARA,GRMA,24.442298,86.86392,13.166666666666666
GHORPARAN,GHN,24.7416247808,86.4985295715,30.0
GHOSHAWAR,GWH,25.7374211354,85.2433507367,56.1
GHOSRANA,GOS,27.179904,76.90338,74.5
GHOSUNDA,GSD,24.871222,74.534527,11.333333333333334
GHUDANKHAPA,GDKP,21.655105,78.42563,61.25
GHUGHULI,GH,27.0539516142,83.7137745453,103.875
GHUM,GHUM,27.008643,88.254223,0.0
GHUNAS H,GUNS,30.320113,75.420592,19.5
GHUNGHUTI,GGT,23.3436391121,81.1862407697,74.25
GHUTAI,GTI,25.289429766,79.4413220264,135.5
GHUTKU,GTK,22.16819,82.085321,61.0
GIANI ZAIL SINGH SANDHWAN,GZS,30.613851,74.801905,12.166666666666666
GIDAM,GIZ,18.934852,81.409001,35.0
GIDARPINDI,GOD,31.152633,75.124514,25.666666666666668
GIDDARBAHA,GDB,30.201319,74.663342,14.0
GIDHAUR,GHR,24.856169,86.324005,34.1
GIDHNI,GII,22.488472,86.853201,414.35714285714283
GIDNAHALI,GDH,13.406514,77.825134,9.5
GILL,GILL,30.840521,75.848169,22.285714285714285
GINIGERA,GIN,15.348226,76.247613,13.75
GIR GADHARA,GEG,20.906347,70.919246,20.5
GIR HADMATIYA,GRHM,20.988488,70.687208,24.25
GIRIDIH,GRD,24.1822559,86.3146452,8.0
GIRIMAIDAN,GMDN,22.340478,87.306151,240.5
GIRWAR,GW,23.838186,78.936311,83.5
GOALPARA TOWN,GLPT,26.126535,90.620659,29.75
GOBARWAHI,GBRI,21.514747,79.723237,55.0
GOBINDPUR DUGAULI H,GOX,26.085299,83.791513,43.5
GODAMGURA,GDQ,17.29025,77.867119,55.25
GODAPIASAL,GSL,22.530677,87.320806,18.5
GODAVARI,GVN,17.007707,81.77083,65.8
GODBHAGA,GBQ,21.416457,83.856969,60.75
GODHA,GDHA,28.005897,78.141225,27.0
GODHANESWAR,GS,22.68118,72.36834,7.5
GODHANI,GNQ,21.21103,79.068176,57.75
GODHRA JN,GDA,22.776974,73.603672,4.928571428571429
GOGAMERI,GAMI,29.1602440323687,75.0350756384432,13.875
GOGI POTHIA,GPE,26.250043,87.284335,29.857142857142858
GOHAD ROAD,GOA,26.480421,78.439153,16.666666666666668
GOHANA,GHNA,29.140297,76.689378,18.857142857142858
GOILKERA,GOL,22.50529,85.379352,35.25
GOKAK ROAD,GKK,16.205164,74.738839,17.333333333333332
GOKARNA ROAD,GOK,14.582791,74.367197,47.5
GOKHULA,GKA,27.069813,84.539763,75.0
GOKULNAGAR H,XGN,25.4879748709,85.3021914355,23.5
GOKULPUR,GKL,22.375923,87.293716,240.5
GOLA GOKARANATH,GK,28.084651,80.475468,91.11111111111111
GOLA ROAD,GRE,23.545551,85.697139,62.25
GOLABAI PH,GLBA,20.016866,85.555928,30.5
GOLAKGANJ JN,GKJ,26.108359,89.83065,72.5
GOLANA,GLNA,27.10333,76.564974,36.0
GOLANTHRA,GTA,19.219065,84.740668,60.333333333333336
GOLAPATTI,GTY,23.798776,79.738652,66.0
GOLDINGANJ,GJH,25.754174,84.827254,45.625
GOLE,GOLE,25.891938,72.00004,11.0
GOLEHWALA,GHA,30.789872,74.704406,13.833333333333334
GOLHALLI,GHL,13.148289,77.413983,11.642857142857142
GOLLAPALLY,GLY,16.818903,78.157285,63.25
GOLLAPROLU,GLP,17.1516644909,82.290817561,0.0
GOMTA,GTT,21.873815,70.729702,8.5
GOND UMRI,GMI,21.003133,80.082136,67.5
GONDA JN,GD,27.154613,81.978152,76.86666666666666
GONDA KACHAHRI,GDK,27.1402272205,81.9340268811,28.0
GONDAL,GDL,21.972471,70.795588,10.75
GONDIA JN,G,21.462435,80.190842,79.52631578947368
GONDWANAVISAPUR,GNVR,19.8826389297,79.3287230096,27.5
GONEANA BHAI JAGTA,GNA,30.318715,74.90948,7.8
GONGLE,GNL,21.222011,80.147349,77.625
GOONDA BIHAR,GDBR,23.067871,86.081167,69.0
GOOTY JN,GY,15.149208,77.625823,10.0
GOP JAM,GOP,22.0539696502,69.90809078,6.5
GOPALAPATNAM,GPT,17.748818,83.214877,43.0
GOPALGANJ,GOPG,26.454202,84.435547,18.5
GOPALPUR BALIKUDA,GBK,20.432635,85.877909,43.3125
GORAKHNATH,GRKN,20.308158,86.260098,34.0
GORAKHPUR CANT,GKC,26.750649,83.416821,88.33333333333333
GORAKHPUR JN,GKP,26.759311,83.381499,103.95238095238095
GORAM GHAT,GGO,25.635531,73.849246,2.0
GORAPUR,GPJ,18.346936,82.79406,40.5
GORAUL,GRL,25.931049,85.318477,48.625
GORAYA,GRY,31.129722,75.774193,40.0
GOREGAON ROAD,GNO,18.162498,73.30253,35.5
GORESUAR,GVR,26.52605563,91.7204668,25.333333333333332
GORIYAN,GIO,27.547928,75.26559,8.333333333333334
GORPHAR,GRR,25.5854196549,87.6717975909,34.0
